continent,country,OSMID,name,center_lat,center_lon,north,south,east,west
Oceania,australia,10300697,University of Queensland Medical School,-27.44857085,153.0242599,-27.4478636,-27.4494858,153.0251464,153.022575
Oceania,australia,105574130,University of Adelaide,-34.91849814,138.6043679,-34.9169696,-34.9209916,138.6067396,138.6017225
Oceania,australia,10585250,"Monash University, Clayton Campus",-37.91056217,145.1372182,-37.9048662,-37.9164027,145.1451841,145.1279888
Oceania,australia,106602760,,-34.40468999,150.8715945,-34.4040515,-34.4052739,150.8726983,150.8699288
Oceania,australia,107270526,,-34.4087698,150.8805306,-34.4082359,-34.4091053,150.882315,150.8787797
Oceania,australia,113107042,Newman College,-37.79470998,144.9640015,-37.7941925,-37.7958771,144.9647796,144.9627605
Oceania,australia,113107044,St Mary's College,-37.7962769,144.9636336,-37.7956832,-37.7966016,144.9645566,144.9626543
Oceania,australia,113107046,St Hilda's College,-37.79244376,144.9625264,-37.7920486,-37.7931952,144.9633756,144.9619254
Oceania,australia,11454576,Melbourne School of Theology,-37.85962833,145.2096733,-37.8589915,-37.8604232,145.2108344,145.2077446
Oceania,australia,132416557,Queen's College,-37.79356255,144.9632844,-37.7924357,-37.7943586,144.9647579,144.9618917
Oceania,australia,143933621,Churches of Christ Theological College,-37.92779911,145.1956992,-37.9270876,-37.9286278,145.1964818,145.1945452
Oceania,australia,149860711,Federation University Australia Equestrian Centre,-37.5097774,143.8479344,-37.5055501,-37.5130952,143.8520087,143.8455044
Oceania,australia,154615415,Charles Darwin University,-12.3726244,130.8694858,-12.3678201,-12.3746935,130.8729158,130.8633906
Oceania,australia,15472995,Saint Francis Theological College,-27.46802124,153.0036667,-27.4661642,-27.4687827,153.0046178,153.0020072
Oceania,australia,159947005,The University of Melbourne Werribee Campus,-37.88946183,144.6931791,-37.8877454,-37.8914832,144.6956609,144.6911655
Oceania,australia,159951097,The University of Melbourne Creswick Campus,-37.42266408,143.8991491,-37.4203476,-37.4238853,143.9027934,143.8966908
Oceania,australia,160913294,Avondale College of Higher Education,-33.08649851,151.4614884,-33.0836044,-33.0885482,151.4646013,151.4587852
Oceania,australia,163772556,"University of Newcastle, Callaghan Campus",-32.89327509,151.7024853,-32.8843618,-32.8972335,151.7135557,151.6953338
Oceania,australia,172146462,Central Queensland University,-21.1758484,149.1414061,-21.1729282,-21.1787054,149.1437183,149.1400543
Oceania,australia,172801510,"University of Western Sydney, Hawkesbury Campus",-33.61007599,150.7289863,-33.6020562,-33.6238005,150.7427321,150.7184166
Oceania,australia,173530296,University of New South Wales Kensington Campus,-33.91758131,151.2308906,-33.9149767,-33.9200415,151.2364136,151.2256851
Oceania,australia,173919788,University of Queensland Gatton Campus,-27.55282242,152.3371313,-27.545147,-27.5615018,152.3505282,152.3237717
Oceania,australia,180360037,Deakin University,-37.84723608,145.1141853,-37.8453974,-37.84993,145.1168918,145.1128309
Oceania,australia,182689240,University of New South Wales,-33.78037455,151.2577184,-33.7795266,-33.7814274,151.2584565,151.2559425
Oceania,australia,183970570,University of the Sunshine Coast,-26.71648025,153.0671742,-26.7134308,-26.7227289,153.0733859,153.0582949
Oceania,australia,192029917,"Federation University, Wimmera Campus",-36.71243528,142.1848425,-36.7118599,-36.7127128,142.1871608,142.1832371
Oceania,australia,194450788,Deakin University (Warrnambool Campus),-38.39235796,142.5366044,-38.3863336,-38.3955837,142.5424905,142.5317664
Oceania,australia,194854309,Carnegie Mellon University,-34.92812533,138.6011844,-34.9278463,-34.9284044,138.6015143,138.6008545
Oceania,australia,197862208,Federation University Gippsland Campus,-38.31165403,146.4285863,-38.3082132,-38.3156407,146.4336775,146.4236815
Oceania,australia,201703380,University of Western Sydney - Bankstown,-33.94033195,150.9918587,-33.9380773,-33.9432982,150.994324,150.9883349
Oceania,australia,202232474,"Western Sydney University, Parramatta North Campus",-33.80730233,151.022796,-33.8058766,-33.8090508,151.0239142,151.0210112
Oceania,australia,202232476,,-33.81280677,151.0275445,-33.810731,-33.8145346,151.0289018,151.0262764
Oceania,australia,202353115,WSU Werrington North,-33.76084489,150.7499943,-33.7577338,-33.7655662,150.7564437,150.7396833
Oceania,australia,202356825,UWS Westmead,-33.8067469,150.9872117,-33.8051023,-33.8079802,150.9879156,150.9851802
Oceania,australia,202871808,Federation University Australia (SMB Campus),-37.56623978,143.8569161,-37.5645143,-37.5679309,143.8585085,143.855562
Oceania,australia,206595898,James Cook University,-16.81820711,145.6872845,-16.814965,-16.8206224,145.6927179,145.6807559
Oceania,australia,207693612,Macquarie University,-33.77452758,151.1152506,-33.7676962,-33.7812113,151.1203977,151.1049696
Oceania,australia,20808147,Charles Sturt University Mitchell,-33.43097045,149.5625046,-33.4259246,-33.4355987,149.5681207,149.5545834
Oceania,australia,209287987,Charles Sturt University,-35.30476864,149.1381331,-35.3033195,-35.3062014,149.1398582,149.1364068
Oceania,australia,214025582,"University of Sydney, Burren Street Campus",-33.89608397,151.1844517,-33.8957398,-33.8963676,151.1850231,151.1839574
Oceania,australia,216286361,"University of Adelaide, Roseworthy Campus",-34.5287085,138.6829978,-34.5232144,-34.5334629,138.6913482,138.6733892
Oceania,australia,219849477,RMIT University,-37.80836663,144.9611692,-37.8080814,-37.8089002,144.9613402,144.9607071
Oceania,australia,220456421,"University of Adelaide, Roseworthy Campus, Farm Animal Teaching Facility",-34.54731235,138.52091,-34.5442532,-34.5503708,138.5246318,138.5171733
Oceania,australia,220560922,"University of Adelaide, Roseworthy Piggery",-34.51161759,138.6795961,-34.5100786,-34.5133728,138.6807358,138.6784547
Oceania,australia,224363101,Medical Science Precinct,-42.87820629,147.3299226,-42.87782,-42.8789045,147.3304715,147.3290977
Oceania,australia,224959702,Flinders University,-35.02562006,138.5731009,-35.0165367,-35.0335856,138.5852657,138.565069
Oceania,australia,225766173,Nirimba Education Precinct,-33.72469273,150.8754179,-33.7195277,-33.7293169,150.883143,150.8679643
Oceania,australia,225921820,Charles Darwin University,-23.69891221,133.8972852,-23.6973461,-23.7006844,133.8986049,133.8949884
Oceania,australia,229131566,Australian Defence Force Academy,-35.29276692,149.1661493,-35.2873894,-35.2961741,149.1702454,149.1611942
Oceania,australia,22944315,University of Canberra,-35.2383068,149.0819236,-35.2316636,-35.2422721,149.0914746,149.074698
Oceania,australia,23488345,Brisbane North Institute of TAFE - Ithaca,-27.44834853,152.9944563,-27.4464322,-27.4504176,152.9962058,152.9933489
Oceania,australia,23921183,University of Tasmania,-42.90660511,147.3215836,-42.8992843,-42.9141675,147.3314726,147.3092897
Oceania,australia,239265212,University of Tasmania Newnham Campus,-41.39983377,147.1244064,-41.397102,-41.4044652,147.1287777,147.1196137
Oceania,australia,240897546,Charles Sturt University - Albury Campus,-36.03807298,146.990903,-36.0302509,-36.0438475,146.9974346,146.9846887
Oceania,australia,241049096,Riverina TAFE - Albury Campus,-36.06892862,146.9104491,-36.0677002,-36.0698485,146.9129223,146.9078117
Oceania,australia,242672009,Nan Tien Institute,-34.46403942,150.8466672,-34.4636214,-34.4648455,150.8476871,150.8458444
Oceania,australia,24411730,Swinburne University of Technology - Wantirna Campus,-37.87353763,145.234533,-37.8723879,-37.8746825,145.2373755,145.233109
Oceania,australia,24853690,Griffith University Nathan Campus,-27.55371656,153.0535179,-27.5468271,-27.5597263,153.0605718,153.0416169
Oceania,australia,24853724,Griffith University Mount Gravatt Campus (Queensland Institute of Business and Technology),-27.54347711,153.065277,-27.5388093,-27.5470284,153.0686013,153.0616919
Oceania,australia,252909986,,-31.74858785,115.7686465,-31.7466391,-31.7515825,115.7697437,115.7675199
Oceania,australia,255953091,Griffith University Gold Coast,-27.96247598,153.3808125,-27.9599605,-27.9648827,153.3849896,153.3769955
Oceania,australia,259506160,"Charles Sturt University, Wagga Wagga South Campus",-35.12837505,147.3488114,-35.1258765,-35.1317029,147.3512744,147.3470864
Oceania,australia,26303436,Queensland University of Technology,-27.45543156,153.0135992,-27.4543247,-27.4570615,153.01474,153.0123894
Oceania,australia,265360949,UNSW Art & Design,-33.88401343,151.2203272,-33.8834417,-33.8845422,151.2207014,151.2197305
Oceania,australia,26564452,RMIT University (City Campus),-37.80591059,144.9653876,-37.8048888,-37.8067909,144.9660398,144.96456
Oceania,australia,26583007,Box Hill Institute (Lilydale Campus),-37.76490347,145.3481841,-37.7617953,-37.767814,145.3513442,145.3439971
Oceania,australia,27552390,Monash University,-37.7839754,144.9586741,-37.7833935,-37.784559,144.9592019,144.9581507
Oceania,australia,27675043,RMIT University (Bundoora Campus),-37.68062286,145.0648786,-37.6778231,-37.6825776,145.0692316,145.0576704
Oceania,australia,27675271,RMIT University (Bundoora Campus),-37.67749158,145.0729787,-37.6753192,-37.6786155,145.0761254,145.0699859
Oceania,australia,27877532,La Trobe University (Bundoora Campus),-37.72034153,145.0511711,-37.7139939,-37.7287428,145.05784,145.0395346
Oceania,australia,27877559,Monash University (Caulfield campus),-37.87736128,145.044872,-37.8758634,-37.8787989,145.0470901,145.0428063
Oceania,australia,27877597,Monash University (Peninsula Campus),-38.15321587,145.136615,-38.1507915,-38.1549104,145.1387862,145.1337738
Oceania,australia,279984863,Australian National University,-35.28130143,149.1194944,-35.2726359,-35.2900054,149.1265367,149.1087018
Oceania,australia,29100565,Victoria University (Footscray Nicholson Campus),-37.80461406,144.8986946,-37.803991,-37.8058009,144.9001804,144.8971958
Oceania,australia,29272326,Victoria University (St Albans Campus),-37.75233855,144.7975386,-37.7487778,-37.7570307,144.8011529,144.7937652
Oceania,australia,29976158,Monash University Berwick Campus,-38.03998121,145.340762,-38.0388117,-38.0415176,145.3420052,145.3371052
Oceania,australia,30158698,Victoria University (Sunshine Campus),-37.7767837,144.8352541,-37.7757646,-37.777949,144.839033,144.832529
Oceania,australia,301728980,James Cook University,-19.32572326,146.7554545,-19.3213436,-19.338519,146.7678977,146.743495
Oceania,australia,301740653,Southern Cross University,-28.81936921,153.3026413,-28.8144261,-28.8220265,153.308523,153.295764
Oceania,australia,302734361,University of Queensland Experimental Mine,-27.50423123,152.9658002,-27.5027847,-27.5063534,152.9672733,152.9645861
Oceania,australia,30678517,Deakin University (Geelong Waterfront Campus),-38.1440388,144.3604843,-38.1429803,-38.1446984,144.3613251,144.3594128
Oceania,australia,30966847,Swinburne University of Technology (Prahran Campus),-37.85233453,144.9919539,-37.8516058,-37.8532111,144.9928525,144.9907926
Oceania,australia,30973454,The University of Melbourne Burnley Campus,-37.82920513,145.0225702,-37.8264994,-37.8311085,145.025463,145.0200355
Oceania,australia,32247329,Australian Catholic University,-37.80721492,144.9778709,-37.8064615,-37.8082683,144.9791025,144.9769624
Oceania,australia,327891250,,-32.92780137,151.771364,-32.9271465,-32.9281205,151.7717887,151.7709836
Oceania,australia,330453481,Goulburn Ovens Institute of TAFE - Seymour,-37.02236502,145.1339715,-37.0215117,-37.0229491,145.1349949,145.1328305
Oceania,australia,334647396,La Trobe University (Albury-Wodonga Campus),-36.11208366,146.8486841,-36.1082012,-36.1146952,146.8515159,146.8459557
Oceania,australia,34094453,Deakin University - Burwood Campus,-37.8444792,145.1126064,-37.8428501,-37.8465282,145.1154889,145.1096725
Oceania,australia,344692995,Central Queensland University,-23.32105206,150.5210014,-23.3117328,-23.3276139,150.5284043,150.5167603
Oceania,australia,35034571,Australian Catholic University,-27.38018797,153.0910021,-27.3734438,-27.3826924,153.0932825,153.0854271
Oceania,australia,365642998,University of Sunshine Coast - Fraser Coast Campus,-25.28612246,152.835964,-25.2839169,-25.2875626,152.8381835,152.8346233
Oceania,australia,368880340,Charles Sturt University - Wagga Wagga Campus,-35.05936021,147.3593569,-35.0487651,-35.0687484,147.3740477,147.3469057
Oceania,australia,371295810,TAFE,-31.44080271,152.8906012,-31.4383687,-31.4426272,152.89179,152.8893683
Oceania,australia,37555366,Bendigo Regional Institute of Tafe (BRIT),-36.75674998,144.2837123,-36.7556574,-36.7576233,144.2850693,144.2824548
Oceania,australia,375928116,Deakin University (Geelong Waurn Ponds Campus),-38.19958032,144.2958211,-38.1928333,-38.2050735,144.3055503,144.2856843
Oceania,australia,377085158,University of Newcastle Newbolds Building,-32.89491725,151.7287416,-32.8943589,-32.8954756,151.7294677,151.7280154
Oceania,australia,37860175,"University of South Australia, City East Campus",-34.91975448,138.6063791,-34.9190901,-34.9208849,138.6074202,138.605936
Oceania,australia,380534378,Ormond College,-37.79283573,144.9606336,-37.7920251,-37.7941052,144.9620606,144.9588105
Oceania,australia,382599723,Southern Cross University,-28.16881096,153.5182786,-28.1676866,-28.1702326,153.519671,153.5172903
Oceania,australia,38666140,Trinity College,-37.79484403,144.9596581,-37.7938498,-37.7961897,144.9605039,144.9583294
Oceania,australia,38839167,Australian Catholic University,-33.83761963,151.2030612,-33.8370075,-33.8380378,151.2039468,151.2023655
Oceania,australia,38859038,"University of Melbourne, Department of Rural Health",-36.3614798,145.4063433,-36.3605542,-36.3624032,145.406912,145.4057693
Oceania,australia,38864735,University College,-37.79142197,144.959669,-37.7900813,-37.7924859,144.9607075,144.9586437
Oceania,australia,390589701,Burnie Tafe Farm,-41.07504995,145.8764418,-41.0741626,-41.0757279,145.8774076,145.8744797
Oceania,australia,39305718,La Trobe University (Bendigo Campus),-36.78097004,144.3004897,-36.7767489,-36.7839388,144.3033075,144.2956961
Oceania,australia,393913699,United Theological College,-33.79092099,151.0170507,-33.7896559,-33.7928926,151.018576,151.0142738
Oceania,australia,395457569,Charles Sturt University,-31.4579186,152.8756239,-31.4569676,-31.4586281,152.8768803,152.8743427
Oceania,australia,396776565,Katherine Rural Campus,-14.37365403,132.1558443,-14.3716935,-14.3771265,132.1584263,132.1517129
Oceania,australia,397749363,Bond University,-28.07314648,153.4162573,-28.0706868,-28.0769698,153.419612,153.4139996
Oceania,australia,40414603,Trinity Theological College,-27.47800288,152.9931543,-27.4773421,-27.4786778,152.9937008,152.9925209
Oceania,australia,411113514,Edith Cowan University (Mount Lawley Campus),-31.91917076,115.8693854,-31.9172464,-31.9217215,115.8731854,115.8655403
Oceania,australia,411186128,University of Notre Dame,-33.88490953,151.1981216,-33.8844677,-33.8854192,151.1985758,151.1974626
Oceania,australia,412862392,Victoria University (Footscray Park Campus),-37.7945387,144.8976209,-37.7935916,-37.7957949,144.9000441,144.896395
Oceania,australia,412862393,Victoria University (Footscray Park Campus),-37.79284276,144.8988289,-37.7921822,-37.7942835,144.901001,144.8969561
Oceania,australia,414807735,Griffith University Gold Coast,-27.9690281,153.3801047,-27.9653293,-27.9732356,153.3857576,153.3763765
Oceania,australia,415013668,Charles Sturt University Dubbo Campus,-32.23417718,148.6276247,-32.2295564,-32.2364733,148.6303266,148.6207741
Oceania,australia,42156311,Federation University Australia (Camp Street Campus),-37.56111787,143.8586953,-37.5603509,-37.5618573,143.8592588,143.8579473
Oceania,australia,42156314,"Australian Catholic University (Aquinas), Ballarat Campus",-37.55720238,143.8435568,-37.556583,-37.5580251,143.8449677,143.8422019
Oceania,australia,42301619,University of Southern Queensland,-27.60370931,151.9313724,-27.5980664,-27.6117519,151.9357554,151.9240122
Oceania,australia,423855856,Hunter Institute of TAFE,-32.27414093,150.8922348,-32.2730306,-32.2758589,150.8941746,150.8909582
Oceania,australia,432007940,Southern Cross University Coffs Harbour Campus,-30.3262624,153.1017242,-30.3232854,-30.3293327,153.1061988,153.0984627
Oceania,australia,43678577,Edith Cowan University (Joondalup Campus),-31.75249833,115.7735834,-31.7496898,-31.7560074,115.7774499,115.768041
Oceania,australia,440267983,University of Newcastle Central Coast Campus,-33.35769108,151.3788396,-33.3556888,-33.3600899,151.383765,151.3747444
Oceania,australia,443529418,University of the Sunshine Coast -Moreton Bay,-27.27104521,152.9814581,-27.2694568,-27.2722364,152.9826453,152.980187
Oceania,australia,44487526,Swinburne University of Technology - Croydon Campus,-37.80146744,145.2863696,-37.8000806,-37.8031681,145.2875934,145.2846075
Oceania,australia,44710516,Brisbane North Institute of TAFE - Bracken Ridge,-27.31991959,153.0250606,-27.3179772,-27.3220391,153.0274464,153.0227853
Oceania,australia,45369133,International House,-37.78863907,144.9577981,-37.7876956,-37.7894608,144.9587286,144.9572131
Oceania,australia,45543836,Janet Clarke Hall,-37.79395105,144.9591243,-37.793535,-37.7942069,144.9597287,144.9585459
Oceania,australia,45558386,National Institute of Dramatic Art,-33.91583422,151.2253234,-33.9148685,-33.916482,151.225702,151.2246721
Oceania,australia,45604574,University of New South Wales,-33.91732476,151.2255216,-33.9163252,-33.9177546,151.2259907,151.2244305
Oceania,australia,468144396,Charles Darwin University Palmerston Campus,-12.47715913,130.9776105,-12.4745968,-12.478613,130.9793828,130.9764857
Oceania,australia,468147206,University of New England,-30.49259686,151.6402586,-30.4797667,-30.5007729,151.64859,151.6308446
Oceania,australia,471313601,University of Wollongong Innovation Campus,-34.40054737,150.899411,-34.3960888,-34.4067514,150.9008007,150.8966669
Oceania,australia,47359847,University of Southern Queensland Ipswich Campus,-27.62848557,152.7550243,-27.6251171,-27.6317042,152.7580775,152.751533
Oceania,australia,475494171,Rural Clinical School,-27.56849347,151.9423513,-27.5683559,-27.5687474,151.9426474,151.9419467
Oceania,australia,481346309,School of Rural Health,-32.2371464,148.6221463,-32.2363308,-32.2377489,148.6226228,148.621542
Oceania,australia,4850410,Trinity on Hampden,-31.97532528,115.8157686,-31.9739281,-31.9769631,115.8177469,115.8135749
Oceania,australia,4983964,Murdoch University,-32.0722814,115.8349221,-32.0639898,-32.0796196,115.8430348,115.8240116
Oceania,australia,502800309,Gold Coast Institute of TAFE,-27.85285213,153.3213141,-27.852426,-27.8540342,153.3220115,153.3205497
Oceania,australia,50422548,Somerville Theatre,-31.9770618,115.8200472,-31.9767875,-31.9773361,115.8203844,115.81971
Oceania,australia,504517005,135 Erica Underwood House,-32.00872306,115.8869457,-32.0074475,-32.0096241,115.8880623,115.8860406
Oceania,australia,504517006,116 Guild House,-32.00475762,115.887235,-32.0040115,-32.005376,115.8880821,115.8859465
Oceania,australia,504517008,Technology Park,-31.99521633,115.8906141,-31.991996,-31.9984185,115.894452,115.8875185
Oceania,australia,5105371,University of Wollongong,-34.40496734,150.8778106,-34.4017198,-34.4086345,150.8836922,150.8720767
Oceania,australia,5118498,Federation University Australia (Mt Helen Campus),-37.62522027,143.8924505,-37.6222088,-37.6295528,143.8956338,143.885633
Oceania,australia,511921082,Victoria University Werribee Campus,-37.88918581,144.6991613,-37.8864032,-37.8932907,144.7006944,144.6959057
Oceania,australia,51318169,Australian Catholic University - Signadou Campus,-35.24598659,149.1554879,-35.2449036,-35.2467846,149.1571476,149.1538002
Oceania,australia,51492969,The Gordon Institute of TAFE (East Geelong Campus),-38.17415125,144.3809787,-38.1725317,-38.1751298,144.3835903,144.379288
Oceania,australia,517041679,Edith Cowan University (South West Campus),-33.36642925,115.6529168,-33.364721,-33.3689455,115.6551709,115.6516906
Oceania,australia,5179347,RMIT University (Brunswick Campus),-37.7721281,144.9575317,-37.7711285,-37.7730993,144.9589509,144.9565026
Oceania,australia,53267078,"Canberra Institute of Technology, Bruce Location",-35.24860728,149.0946616,-35.2458655,-35.2509187,149.0978894,149.0909355
Oceania,australia,546949240,USC Caboolture,-27.07363533,152.9598933,-27.0725954,-27.0748739,152.9617808,152.9584756
Oceania,australia,551529010,Technology Park,-31.99437758,115.8861451,-31.9933459,-31.9951134,115.8868934,115.8851481
Oceania,australia,553741815,,-23.86178815,151.2647246,-23.8597905,-23.8639609,151.2667073,151.2632853
Oceania,australia,561223969,University of Wollongong (Highlands Campus),-34.55446638,150.3756338,-34.5542652,-34.5547965,150.3762039,150.3751249
Oceania,australia,584389531,UWA Sports Park,-31.95173783,115.7847713,-31.949331,-31.9552396,115.7913212,115.7778725
Oceania,australia,586574768,C.B. Newling Centre,-30.52322176,151.6625818,-30.5222574,-30.5244093,151.6637617,151.6615238
Oceania,australia,5929280,Curtin University (Bentley Campus),-32.00537768,115.8927464,-31.9981943,-32.0131141,115.8984308,115.8869315
Oceania,australia,59536007,Queensland University of Technology - Kelvin Grove,-27.45186458,153.0155807,-27.448347,-27.4542521,153.0187531,153.0129814
Oceania,australia,59912981,UTAS Cradle Coast Campus,-41.05781192,145.880771,-41.0570991,-41.0586598,145.8820002,145.8794177
Oceania,australia,610927146,University of New South Wales Randwick Campus,-33.90586791,151.2341739,-33.9054057,-33.9066551,151.2352684,151.233365
Oceania,australia,616082731,RMIT University (City Campus),-37.80796334,144.9646511,-37.8070014,-37.8094489,144.9661144,144.963071
Oceania,australia,625480717,UniSA Whyalla Campus,-33.02940551,137.5463491,-33.028253,-33.0301269,137.5481704,137.5444785
Oceania,australia,656118774,Curtin University Midland Campus,-31.89598309,116.0061335,-31.8954963,-31.8964543,116.0068384,116.0058493
Oceania,australia,67976287,,-27.48259403,153.026426,-27.4823963,-27.4828674,153.0268594,153.0260507
Oceania,australia,68333407,Griffith University Queensland College of Art,-27.4815967,153.0244223,-27.4809611,-27.4824079,153.0249834,153.0235095
Oceania,australia,702587928,La Trobe University,-34.20540478,142.1667205,-34.2051118,-34.2059509,142.1675393,142.1659333
Oceania,australia,737711381,Victoria University - City Queen Campus,-37.81161176,144.9596429,-37.8113941,-37.8118277,144.9598674,144.9592964
Oceania,australia,758850257,QUT Garden Points campus,-27.4772683,153.0277143,-27.4747474,-27.4787957,153.030121,153.0260936
Oceania,australia,770773277,University of Sydney - Cumberland Campus,-33.88357767,151.04979,-33.8781218,-33.8856279,151.0515565,151.0469523
Oceania,australia,772558888,RMIT University (City Campus),-37.80825969,144.9624529,-37.8076358,-37.8088691,144.9631266,144.9616604
Oceania,australia,773893268,RMIT University (City Campus),-37.80606452,144.9639194,-37.8055127,-37.8066434,144.9644156,144.9634092
Oceania,australia,773893269,,-37.80617054,144.9627156,-37.8059472,-37.8064956,144.9628472,144.9625266
Oceania,australia,782393382,University of South Australia Mawson Lakes Campus,-34.80986049,138.6204076,-34.8063822,-34.8135842,138.6227839,138.6170359
Oceania,australia,797212001,Murdoch University - Mandurah Campus,-32.51553574,115.7556975,-32.5147029,-32.5162427,115.7564489,115.7549991
Oceania,australia,800338529,Australian Maritime College,-41.39944509,147.1191852,-41.3971875,-41.4023433,147.121768,147.1165408
Oceania,australia,8039128,Queensland University of Technology,-27.47764437,153.0288041,-27.4754863,-27.4788904,153.0304783,153.026435
Oceania,australia,98297031,Western Sydney University Campbelltown,-34.06814953,150.7885833,-34.0635562,-34.0750427,150.8003386,150.782717
Europe,austria,107368127,Universit?t f¨¹r Bodenkultur / T¨¹rkenschanze,48.23724707,16.33564943,48.2379576,48.236057,16.3377759,16.3345547
Europe,austria,111542534,FH Campus Wien,48.15809071,16.38187635,48.1592304,48.1567897,16.3828187,16.380644
Europe,austria,113858340,?sterreichische Akademie der Wissenschaften,48.20976589,16.38508065,48.2102074,48.2092711,16.3854146,16.3848916
Europe,austria,115632840,P?dagogische Hochschule Ober?sterreich,48.30750762,14.30422291,48.3082819,48.3069418,14.3059994,14.3035754
Europe,austria,116521459,Universit?t Graz - Universit?tszentrum Theologie (UZT),47.08128073,15.4541304,47.0816435,47.0810179,15.4548273,15.4534359
Europe,austria,116607040,Fachhochschule Ober?sterreich - Fakult?t f¨¹r Gesundheit/Soziales,48.30171237,14.31113246,48.302608,48.3009913,14.3123594,14.3100682
Europe,austria,119990631,VBC5,48.1881821,16.40232614,48.1883463,48.1878211,16.4025699,16.4018462
Europe,austria,124198679,FH Ober?sterreich Campus Hagenberg,48.36808002,14.51288249,48.3685236,48.3677651,14.5152584,14.5111854
Europe,austria,137998129,"Forstlicher Versuchsgarten ""Kn?delh¨¹tte""",48.2179645,16.24163353,48.2193751,48.215913,16.2429558,16.2376757
Europe,austria,139616797,Universit?t f¨¹r Bodenkultur Wien ¨C Standort Muthgasse,48.246913,16.3670656,48.2477451,48.2463879,16.3688935,16.3655755
Europe,austria,140066231,,48.21946292,16.35488983,48.2200568,48.2181232,16.3567058,16.3532754
Europe,austria,140435376,Katholische Theologische Universit?t,48.30367036,14.29150274,48.3038993,48.3034258,14.2918361,14.2911744
Europe,austria,145291703,Universit?t f¨¹r Bodenkultur Wien / Standort Tulln,48.32017199,16.06811702,48.3214731,48.3168163,16.0710456,16.0648911
Europe,austria,145340738,Anton Bruckner Privatuniversit?t,48.31080665,14.26881221,48.3114091,48.3102416,14.2704936,14.2680327
Europe,austria,155529328,Science Park,48.33575716,14.32350375,48.3370747,48.3341221,14.3253789,14.3215067
Europe,austria,158414927,Versuchswirtschaft Gro?-Enzersdorf der Universit?t f¨¹r Bodenkultur Wien,48.19894514,16.56137177,48.202376,48.1962143,16.5676049,16.5555242
Europe,austria,164446783,Fachhochschule Wiener Neustadt Campus Wieselburg,48.13896275,15.13945679,48.1397779,48.1383459,15.1403028,15.1383334
Europe,austria,168566699,,47.72406635,13.08684107,47.7253294,47.7219228,13.0884692,13.0852721
Europe,austria,176477793,Universit?t f¨¹r angewandte Kunst in Wien,48.20820332,16.38488766,48.2085284,48.2079553,16.3856446,16.384338
Europe,austria,185497455,Versuchszentrum Jedlersdorf der Universit?t f¨¹r Bodenkultur,48.28814612,16.42799865,48.2906775,48.2857462,16.4296925,16.4256115
Europe,austria,187761669,Zentralanstalt f¨¹r Meteorologie und Geodynamik,48.24859707,16.35632009,48.2490483,48.2482093,16.3579022,16.3552113
Europe,austria,195909877,Fachhochschule Wiener Neustadt,47.83915366,16.24788389,47.8404375,47.8381411,16.2486384,16.2470395
Europe,austria,22498795,FH St. P?lten,48.21345339,15.6317496,48.2142937,48.2126654,15.6329324,15.6308622
Europe,austria,225892876,Fachhochschule Salzburg ¨C Campus Kuchl,47.62986465,13.15167101,47.6309186,47.6292134,13.1529305,13.1507205
Europe,austria,24903216,Universit?t Innsbruck ¨C Campus Technik,47.26417125,11.34441556,47.2652371,47.2626552,11.3479338,11.3402953
Europe,austria,24903217,Universit?t Innsbruck Campus Innrain,47.26352402,11.38440295,47.2648879,47.2623514,11.3863623,11.3830215
Europe,austria,24961783,,47.2695497,11.39838786,47.2701907,47.2690412,11.3997127,11.3971727
Europe,austria,25427674,Universit?t f¨¹r angewandte Kunst in Wien,48.20812582,16.38246382,48.2087205,48.2076265,16.3833861,16.3818117
Europe,austria,25753836,Universit?t Innsbruck Sport-Campus,47.25682386,11.35586515,47.2591059,47.2554851,11.3610527,11.3502891
Europe,austria,26641949,Veterin?rmedizinische Universit?t,48.25415303,16.43006894,48.2583092,48.2514226,16.4344869,16.4278725
Europe,austria,275773380,Universit?ts- und Landessportzentrum Salzburg/Rif,47.72170962,13.0698188,47.7242362,47.7193703,13.0738194,13.0656451
Europe,austria,27604251,,47.07049298,15.45735288,47.0710028,47.0701856,15.4579328,15.4566618
Europe,austria,27633802,Universit?t f¨¹r Musik und darstellende Kunst,47.07290361,15.44969109,47.0737361,47.0720984,15.4506869,15.4482383
Europe,austria,27759012,Karl-Franzens-Universit?t Graz,47.07738023,15.44955553,47.0797762,47.0759865,15.4525454,15.446919
Europe,austria,27888398,"Karl-Franzens-Universit?t Graz, Zentrum f¨¹r molekulare Biowissenschaften",47.0803448,15.44698224,47.0812401,47.0798941,15.4483275,15.446187
Europe,austria,27891896,PH 4,48.16503175,16.37404649,48.1654243,48.1645717,16.3747702,16.3732994
Europe,austria,28324131,Universit?t f¨¹r Bodenkultur / T¨¹rkenschanze,48.23753622,16.33115146,48.2383289,48.2371662,16.3329999,16.3302749
Europe,austria,290228946,Universit?t f¨¹r Bodenkultur Wien ¨C Lehrforstzentrum,47.70097643,16.29850349,47.7014903,47.7003053,16.299015,16.2980326
Europe,austria,312738996,,47.79462752,13.05463315,47.795608,47.7939558,13.0555714,13.0533978
Europe,austria,31830729,,48.20427616,16.31754311,48.2058768,48.2028299,16.3202331,16.3168351
Europe,austria,330235259,,47.80870572,13.0314786,47.8090388,47.8083758,13.0319683,13.0309265
Europe,austria,33151166,Universit?t f¨¹r Musik und darstellende Kunst Wien,48.2021336,16.38591694,48.203284,48.2008681,16.3869267,16.3844683
Europe,austria,35324259,Campus Getreidemarkt,48.20075882,16.36251633,48.2016234,48.1997712,16.3643205,16.3616025
Europe,austria,37081983,Johannes-Kepler-Universit?t Linz,48.33700806,14.32101519,48.3384722,48.3341221,14.3253789,14.3141104
Europe,austria,403134856,,48.23346938,16.34844572,48.2339148,48.2330946,16.3493565,16.3475326
Europe,austria,45277813,Versuchsgarten Essling,48.21052421,16.52295499,48.2121278,48.2092894,16.5239966,16.5223259
Europe,austria,454066952,Vorarlberger Landeskonservatorium,47.23470436,9.595890411,47.2355163,47.2337666,9.5970964,9.5949219
Europe,austria,55196206,,47.26291286,11.39351217,47.2632197,47.2625391,11.3940359,11.3924771
Europe,austria,56141383,Kunstuni - Reiterkaserne,47.07520062,15.45919151,47.0755723,47.0746214,15.4598954,15.4587756
Europe,austria,588777314,Katholisch-Theologische Fakult?t,47.26855173,11.39791979,47.2689844,47.2681411,11.3990318,11.3960696
Europe,austria,625320586,Pharmakologie,47.26058872,11.38827217,47.260966,47.2603611,11.3886769,11.3879847
Europe,austria,625320587,,47.2597967,11.38738982,47.2602843,47.2593044,11.3879918,11.3868885
Europe,austria,661350988,Fachhochschule Ober?sterreich - Fakult?t Technik & Angewandte Naturwissenschaften,48.16140784,14.02749137,48.1619909,48.1608838,14.0283323,14.0272221
Europe,austria,71342287,Montanuniversit?t Leoben,47.38542478,15.09348142,47.386489,47.3843906,15.0946599,15.0924875
Europe,austria,720150081,Campus Krems,48.40799542,15.58649036,48.409308,48.4068201,15.5897384,15.5840039
Europe,austria,732158195,,47.82173674,13.04056686,47.8224209,47.8212226,13.0416857,13.0395305
Europe,austria,747122287,Medizinische Universit?t Graz - Campus Modul 1,47.0807099,15.47008963,47.0817274,47.0795666,15.4713551,15.468932
Europe,austria,751115477,FH Vorarlberg,47.40591616,9.743834575,47.4063247,47.4052741,9.7449535,9.7427694
Europe,austria,762852205,FH Vorarlberg,47.40658706,9.744061556,47.4070162,47.4059905,9.745069,9.7430321
Europe,austria,82754764,Universit?t Graz - UZ Wall,47.07055332,15.45738267,47.0710028,47.0701856,15.4579328,15.4568674
Europe,austria,84532472,Institut f¨¹r Verfahrenstechnik,48.26927971,14.26600521,48.2698962,48.268858,14.2667435,14.2651181
Europe,austria,98412708,Wirtschaftsuniversit?t Wien,48.2137001,16.40779368,48.2160504,48.21142,16.4117781,16.4052573
Europe,austria,99054455,CCB ¨C Centrum f¨¹r Chemie und Biomedizin,47.25998232,11.38105929,47.2607092,47.2593166,11.3820484,11.3801174
Europe,belgium,111490988,HENALLUX,50.00228671,5.716626882,50.002496,50.0019266,5.7171327,5.7161209
Europe,belgium,111976648,UGent campus Aula,51.0515732,3.723871122,51.0521668,51.0509066,3.7251198,3.7228631
Europe,belgium,113565640,HoGent/UGent campus Schoonmeersen,51.03338074,3.702973755,51.0359606,51.0303538,3.7063595,3.700317
Europe,belgium,114537842,KU Leuven Kulak,50.80602209,3.29359184,50.8085389,50.8027621,3.2971865,3.2892567
Europe,belgium,115184740,UCLouvain FUCaM Mons - HELHa,50.45230608,3.983936157,50.4545708,50.4509293,3.9888056,3.9802829
Europe,belgium,116408106,UGent campus Rommelaere,51.04565479,3.719466792,51.0460585,51.0451628,3.7205951,3.7186959
Europe,belgium,140603385,HEC Li¨¨ge,50.63728238,5.562517356,50.6376316,50.6365363,5.5630374,5.5614715
Europe,belgium,145469843,VIVES - Campus Kortrijk,50.80612217,3.283781191,50.8076952,50.8036059,3.287266,3.2808825
Europe,belgium,147282451,PIVO-campus,50.8935094,4.273659211,50.8944818,50.8916748,4.2770424,4.2704763
Europe,belgium,148567834,Katholieke Hogeschool Vives,51.06884714,3.106577021,51.0693322,51.0681438,3.1078606,3.1058377
Europe,belgium,150213175,Universit¨¦ Libre de Bruxelles (Campus du Solbosch),50.81375327,4.381065375,50.8159248,50.8110185,4.3852177,4.3780781
Europe,belgium,169387150,UGent Het Pand,51.05266335,3.720151116,51.0532626,51.0524499,3.7206074,3.7197326
Europe,belgium,181268985,UGent campus Merelbeke,50.9981153,3.764532284,51.0006581,50.9963646,3.7682649,3.761791
Europe,belgium,18947151,Campus Drie Eiken Universiteit Antwerpen,51.16130453,4.407091697,51.1681706,51.1529962,4.4162855,4.4003704
Europe,belgium,198431101,Universiteit Gent - Campus Proefhoeve,50.97910348,3.819479463,50.9806944,50.9779976,3.8212128,3.8169474
Europe,belgium,217991612,UGent campus Proeftuin,51.02391459,3.740639479,51.024693,51.022855,3.7427439,3.7384675
Europe,belgium,225048052,HoGent Campus Aalst,50.9371605,4.033301864,50.9373461,50.9366806,4.0343385,4.0326873
Europe,belgium,22953763,Universiteit Antwerpen,51.22434003,4.411427828,51.2247463,51.2239161,4.4121316,4.4107156
Europe,belgium,22953784,,51.22096847,4.409567974,51.2213108,51.22072,4.4100415,4.4091963
Europe,belgium,22953786,Universiteit Antwerpen,51.22105275,4.411085508,51.2215613,51.2205576,4.4116583,4.4104323
Europe,belgium,230129807,,50.93372785,5.34217078,50.9341263,50.9330908,5.3429849,5.3416893
Europe,belgium,231900701,UGent campus Ledeganck,51.035441,3.723399336,51.0364893,51.0342861,3.7249462,3.7212949
Europe,belgium,238940384,Centre de Michamps,50.03902596,5.808324954,50.0418412,50.0358911,5.8125398,5.8031577
Europe,belgium,24027797,Universit¨¦ de Li¨¨ge Gembloux Agro-Bio Tech,50.56218306,4.695204961,50.5648426,50.5608266,4.6982479,4.6927375
Europe,belgium,241104659,UGent campus Heymans,51.02522602,3.730605423,51.0267766,51.0239041,3.7324194,3.7286357
Europe,belgium,241934055,UGent campus Ardoyen,51.01147691,3.707493906,51.0140867,51.0076157,3.7112519,3.7033367
Europe,belgium,24311154,UGent campus Sterre,51.02577156,3.714313392,51.0280527,51.0220244,3.7202272,3.7093993
Europe,belgium,243667853,Haute ?cole en Hainaut - Campus P¨¦dagogique,50.44844396,3.953343437,50.4496697,50.4474907,3.954543,3.9519211
Europe,belgium,244291690,Pavillons UCL Mons,50.45536331,3.978064031,50.4567442,50.4541367,3.9794841,3.9762005
Europe,belgium,256082681,VIVES campus Brugge,51.18714966,3.203519226,51.1882058,51.1861083,3.2052964,3.2013467
Europe,belgium,256118090,Erasmushogeschool Brussel - Campus Bloemenhof,50.84748878,4.343215589,50.8477858,50.8472815,4.3437134,4.3427402
Europe,belgium,264061316,The Leuven Institute for Ireland In Europe,50.87565706,4.696338329,50.8761913,50.8751727,4.6972221,4.694831
Europe,belgium,269152165,UGent campus Kortrijk IDC,50.8223555,3.25027628,50.8231408,50.821592,3.251018,3.2493647
Europe,belgium,29435713,Vrije Universiteit Brussel (Jette),50.88850009,4.305708723,50.8896127,50.8865028,4.3069251,4.3039953
Europe,belgium,29451706,VUB - Campus Jette,50.88537647,4.307201278,50.8904758,50.8830036,4.3107973,4.3035379
Europe,belgium,294962243,Campus Arenberg II,50.85949624,4.679973108,50.8616532,50.8559207,4.6832571,4.674186
Europe,belgium,294962244,Campus Arenberg III,50.86307745,4.676122544,50.8649992,50.8616098,4.6807413,4.6709527
Europe,belgium,294994803,Campus Arenberg I,50.8628189,4.685105203,50.8654071,50.8602232,4.6899984,4.6804439
Europe,belgium,299475628,Artesis Plantijn Hogeschool - Campus Noorderplaats,51.23047154,4.414051958,51.2307467,51.2299011,4.4149287,4.4134381
Europe,belgium,29980483,Vrije Universiteit Brussel (Etterbeek),50.82227316,4.396015757,50.8254319,50.8197832,4.4001119,4.3908441
Europe,belgium,301097454,UGent campus Heide,51.00147829,3.767727021,51.0021316,51.000753,3.7692323,3.7666079
Europe,belgium,30147960,Universit¨¦ libre de Bruxelles (?rasme),50.81316103,4.264386723,50.8153354,50.8114373,4.2715729,4.2597007
Europe,belgium,30334638,UCLouvain Saint-Louis - Bruxelles,50.85358247,4.361232392,50.8542629,50.8526542,4.3621552,4.3602152
Europe,belgium,30358555,Universit¨¦ Libre de Bruxelles (Plaine),50.81993043,4.399482838,50.8226888,50.8171846,4.4031695,4.3941882
Europe,belgium,339616477,Artesis Plantijn Hogeschool - Campus Ellermanstraat,51.23034814,4.415967886,51.2305865,51.229906,4.4167452,4.415511
Europe,belgium,346849061,VIVES - Campus Kortrijk,50.80494411,3.288573713,50.8055764,50.8043618,3.2895986,3.287429
Europe,belgium,361257235,HELHa-Ecole Normale,50.6003632,3.622974864,50.6006388,50.6000513,3.623349,3.6225949
Europe,belgium,37387293,UMONS,50.45913575,3.950332669,50.4596333,50.4587263,3.9511615,3.9494807
Europe,belgium,395485509,H¨¦nallux,50.22806214,5.3361566,50.2287345,50.2275064,5.3372157,5.3348144
Europe,belgium,4342051,Campus Middelheim Universiteit Antwerpen,51.18463955,4.419828438,51.1855084,51.1831349,4.4218017,4.4185021
Europe,belgium,436507031,ULi¨¨ge - Campus de Li¨¨ge Sart Tilman,50.58461603,5.562469027,50.5871836,50.5806617,5.5732127,5.5551589
Europe,belgium,4382349,Campus Groenenborger Universiteit Antwerpen,51.17838947,4.415758772,51.1796136,51.1766902,4.4172716,4.4133993
Europe,belgium,438433283,HELHa,50.47394849,4.187193,50.4742736,50.4735621,4.1878457,4.1867101
Europe,belgium,450426438,UGent campus Tweekerken,51.04356996,3.727359417,51.0446687,51.0427195,3.7283412,3.7265858
Europe,belgium,471915145,,50.9253417,5.390915742,50.9266489,50.9244231,5.3938291,5.3873968
Europe,belgium,478029260,UCL Tournai,50.60647039,3.397065733,50.6067864,50.6058934,3.3979375,3.3963049
Europe,belgium,494684472,Institut Sup¨¦rieur Industriel de Bruxelles,50.85059925,4.363912888,50.8507432,50.8504003,4.3642265,4.3635651
Europe,belgium,495714688,,51.2229841,4.4102452,51.2236805,51.2222364,4.4115193,4.408869
Europe,belgium,51921285,UGent campus Coupure,51.05361488,3.707452195,51.0542176,51.0521091,3.7092329,3.7059025
Europe,belgium,529369143,KU Leuven en VIVES campus Brugge Station,51.19396538,3.217667139,51.1946226,51.1934736,3.2186749,3.2167732
Europe,belgium,545210853,,50.80654962,3.285849418,50.8070588,50.8061083,3.286678,3.285101
Europe,belgium,548345856,Autonome Hochschule Ostbelgien,50.61786573,6.047981683,50.6182345,50.6172804,6.0488105,6.0472175
Europe,belgium,58132237,UNamur,50.46584619,4.860360763,50.4664264,50.4654129,4.8611014,4.8590604
Europe,belgium,584353907,,51.22404309,4.413013293,51.2247343,51.2236959,4.4139143,4.4124306
Europe,belgium,584355011,,51.22351137,4.412953519,51.2239613,51.2227809,4.4138385,4.4120659
Europe,belgium,584399505,,51.22190033,4.408902085,51.2223163,51.2214816,4.409348,4.4083995
Europe,belgium,584864064,,51.22030321,4.409323625,51.2207021,51.2199705,4.4098629,4.4089831
Europe,belgium,594430724,Koninklijk Conservatorium Brussel,50.83976854,4.357258214,50.8399815,50.8394206,4.3575545,4.3567373
Europe,belgium,594675108,Conservatoire royal de Bruxelles - Koninklijk Conservatorium Brussel,50.83923571,4.355737029,50.8395957,50.8384826,4.3564282,4.3550881
Europe,belgium,648260637,UGent campus Ufo,51.04613772,3.727627388,51.047517,51.0446453,3.7284771,3.7267857
Europe,belgium,668477555,UGent campus Kortrijk GKG / Howest campus Kortrijk Weide gebouw A & B,50.8244992,3.249448957,50.8255465,50.8238848,3.2511955,3.2484217
Europe,belgium,675436034,Campus Melle,51.01445597,3.786573833,51.0150936,51.0141445,3.7873888,3.7858341
Europe,belgium,687989264,Howest campus Kortrijk Weide,50.82501314,3.248798827,50.8270254,50.8238848,3.2511955,3.2464733
Europe,belgium,694962966,Zwartzustersklooster,50.87334201,4.697640558,50.87361,50.8728968,4.6980997,4.6972006
Europe,belgium,695795472,Amerikaans College,50.87329381,4.699061845,50.8735329,50.872857,4.6997917,4.6981745
Europe,belgium,704948513,Ecole communale Christian Merveille,50.65956848,4.938000522,50.6600646,50.6591036,4.9388023,4.9377701
Europe,belgium,758754359,UCLouvain Saint-Louis Brussels - Campus Tilleuls,50.83515675,4.376625661,50.8356793,50.834658,4.3778135,4.3759105
Europe,belgium,758756695,UCLouvain Saint-Louis Brussels - Campus Marie-Haps,50.83866786,4.37187879,50.8389949,50.8382971,4.3723861,4.3713442
Europe,belgium,758766457,UCLouvain Bruxelles Woluwe,50.85144092,4.452484488,50.8541695,50.8478361,4.4619986,4.4458186
Europe,belgium,776449845,Antwerp Management School,51.21440225,4.4042548,51.2146355,51.214067,4.4049447,4.4038866
Europe,belgium,77812229,Universit¨¦ de Li¨¨ge - Arlon Campus Environnement,49.68013583,5.822186863,49.6816164,49.6789112,5.8240819,5.8205358
Europe,belgium,785569655,Campus Rochus,51.21258061,4.400194854,51.2128657,51.2123123,4.4007295,4.3992302
Europe,belgium,788175840,Artesis Plantijn Hogeschool,51.21985188,4.412119929,51.2202224,51.2194874,4.412648,4.4114647
Europe,belgium,82135858,UMONS,50.46390044,3.955941609,50.4656679,50.4624442,3.957695,3.9529978
Europe,belgium,84064442,UMONS,50.45852083,3.951390493,50.4594012,50.4578867,3.9530338,3.9502559
Europe,belgium,84064446,Universit¨¦ de Mons,50.4587791,3.952084493,50.45898,50.4584922,3.9529452,3.9513162
Europe,belgium,84064450,UMONS,50.45894734,3.953775795,50.4594888,50.4580951,3.9544288,3.9528008
Europe,belgium,84643928,UMONS - Campus Polytech - Site Houdain,50.45174042,3.95317977,50.4522611,50.4509524,3.9537094,3.9525693
Europe,belgium,85679989,Campus Polytech,50.44817787,3.955211045,50.4486247,50.4476195,3.955997,3.9546051
Europe,belgium,94808870,UMONS- Campus Polytech - Site ?pargne,50.44724269,3.956736567,50.4480518,50.4464446,3.958388,3.9557867
Europe,belgium,94808877,UMONS,50.45353445,3.956577922,50.4538842,50.4531129,3.9569784,3.9562869
Europe,belgium,94808913,UMons - Campus Polytech - Site Dolez,50.45147018,3.9594763,50.4523191,50.4510128,3.9606371,3.9586704
Europe,belgium,94808914,UMONS - Campus Polytech - Site Joncquois,50.44573261,3.957769058,50.4466955,50.4443027,3.9595415,3.9558437
Europe,belgium,95433353,UNamur,50.46390456,4.858076186,50.4647212,50.4630912,4.8590323,4.8566022
Europe,belgium,99078477,UNamur,50.46621267,4.85828595,50.4671265,50.4654568,4.8600813,4.8570127
South_America,brazil,104708736,UESB - Universidade Estadual do Sudoeste da Bahia,-14.88762477,-40.80034378,-14.8701076,-14.8977175,-40.7826005,-40.8070699
South_America,brazil,107507525,Feevale: Campus I,-29.67871384,-51.11353205,-29.6774316,-29.6805972,-51.1124359,-51.1148352
South_America,brazil,108238179,Centro Universit¨¢rio Bennett,-22.93543123,-43.17647068,-22.9346509,-22.9361656,-43.1760628,-43.1771061
South_America,brazil,108686239,UENF,-21.76175986,-41.28893361,-21.7600768,-21.764563,-41.2830302,-41.2965011
South_America,brazil,109341846,Faculdade de Teatro da UFBA,-12.99217287,-38.52192998,-12.9918379,-12.9924905,-38.5215819,-38.5223122
South_America,brazil,110614829,Universidade Estadual de Mato Grosso do Sul,-23.0545883,-54.20333045,-23.0538023,-23.0551882,-54.2027933,-54.2038524
South_America,brazil,116744510,Unesp - Faculdade de Odontologia de Ara?atuba,-21.25077103,-50.42095043,-21.2485448,-21.2534095,-50.4178313,-50.4232455
South_America,brazil,120664489,IFET - Instituto Federal Sudeste de Minas Gerais,-21.74245709,-43.3753004,-21.7415422,-21.7434999,-43.3738424,-43.3764483
South_America,brazil,123283775,Faculdade de Direito de Franca - FACEF,-20.53709606,-47.39042629,-20.5364142,-20.5376397,-47.3899176,-47.3913846
South_America,brazil,123814369,Universidade Paulista Ch¨¢cara Santo Ant?nio Campus II,-23.63220037,-46.69516778,-23.6313476,-23.6328266,-46.6944955,-46.695894
South_America,brazil,124962730,Faculdades Metropolitanas Unidas Santo Amaro,-23.59552573,-46.6726146,-23.5950342,-23.5960966,-46.6720644,-46.6731444
South_America,brazil,125450972,Museu de Arte Contempo?nea da Universidade de S?o Paulo,-23.58830326,-46.65089309,-23.5856066,-23.5899312,-46.6499723,-46.6519253
South_America,brazil,125451154,Universidade do Meio Ambiente e Cultura da Paz,-23.59420339,-46.6629809,-23.5939241,-23.5946918,-46.6625168,-46.663218
South_America,brazil,126308760,Campus do Valonguinho,-22.89772003,-43.12548465,-22.8964451,-22.8991606,-43.1242552,-43.1268296
South_America,brazil,126312683,Campus do Gragoat¨¢,-22.89802812,-43.13265568,-22.8955346,-22.9012157,-43.1275641,-43.1359007
South_America,brazil,126322094,Campus da Praia Vermelha,-22.90599299,-43.13243909,-22.9035156,-22.9081407,-43.1300184,-43.1354556
South_America,brazil,126902716,Faculdade Jaguari¨²na Campus II,-22.71788207,-47.01656392,-22.7147358,-22.7205407,-47.0142757,-47.0190768
South_America,brazil,126983660,Centro Universit¨¢rio FEI,-23.72652861,-46.58010822,-23.7239577,-23.7289012,-46.5775473,-46.5836451
South_America,brazil,127429335,Universidade Vila Velha,-20.35457106,-40.29891421,-20.3527594,-20.3559546,-40.2980277,-40.3003475
South_America,brazil,129121408,Faculdade de teologia Sul Americana,-23.33525356,-51.18667026,-23.3349532,-23.3363206,-51.1860741,-51.188869
South_America,brazil,129484088,Pontificia Universidade Catolica de Minas Gerais,-21.79964445,-46.59992204,-21.7981467,-21.8019611,-46.59594,-46.6029202
South_America,brazil,131232816,Centro Universit¨¢rio Vila Velha - Biopr¨¢ticas,-20.35078384,-40.30038049,-20.3502443,-20.3512859,-40.2996168,-40.3019022
South_America,brazil,131393101,Universidade Federal de Santa Catarina,-27.58243274,-48.50486791,-27.5812745,-27.5835071,-48.5039133,-48.5061808
South_America,brazil,131405548,FADMINAS,-21.30984678,-44.93632063,-21.3073923,-21.3116301,-44.9331973,-44.9395163
South_America,brazil,131707521,Universidade Estadual de Maring¨¢,-23.40728683,-51.94023688,-23.3998856,-23.4110726,-51.9322591,-51.9480301
South_America,brazil,131965483,Unifacs - Campus Rio Vermelho,-13.01186377,-38.4898688,-13.0116549,-13.0120479,-38.4896134,-38.4900929
South_America,brazil,132445157,Unifenas Campus Po?os de Caldas,-21.83589878,-46.57970325,-21.8349876,-21.8366804,-46.5787813,-46.5805452
South_America,brazil,132457334,Instituto Federal de Santa Catarina,-27.59396829,-48.54231367,-27.5928678,-27.5949648,-48.5406615,-48.5433736
South_America,brazil,133116488,Faculdade Est¨¢cio,-27.57336842,-48.51425448,-27.5728255,-27.5737357,-48.5134678,-48.5146885
South_America,brazil,133189064,FURB - Campus 2,-26.89128496,-49.08408553,-26.8896674,-26.8923581,-49.0823254,-49.0862697
South_America,brazil,133189069,FURB - Campus 1,-26.90553711,-49.07903055,-26.9036264,-26.9073416,-49.0766266,-49.0819304
South_America,brazil,133189078,FURB - Campus 3,-26.89918536,-49.07832712,-26.898376,-26.8996419,-49.077553,-49.0790828
South_America,brazil,134395634,Nossa Senhora de Lourdes,-27.60122113,-48.58632325,-27.5998905,-27.6026292,-48.5855534,-48.5870955
South_America,brazil,135576048,Universidade do Estado de Santa Catarina,-27.58566013,-48.50359801,-27.5843635,-27.5871549,-48.501269,-48.5058203
South_America,brazil,136243371,UDF - Centro Universit¨¢rio do Distrito Federal,-15.8025486,-47.8998015,-15.8018225,-15.8032649,-47.8990842,-47.9005202
South_America,brazil,136564045,Centro Universit¨¢rio S?o Camilo,-20.85959064,-41.12130529,-20.8576283,-20.8612035,-41.1201688,-41.1235968
South_America,brazil,138159295,Universidade Federal de Rondon¨®polis,-16.46453827,-54.57830232,-16.4569308,-16.4686844,-54.5745685,-54.5841471
South_America,brazil,138277880,Universidade Federal de Campina Grande,-7.214330741,-35.90902882,-7.2111477,-7.2172552,-35.9057663,-35.9127731
South_America,brazil,139211449,FACHO-Faculdade de Ci¨ºncias Humanas,-7.987697967,-34.85649937,-7.9870783,-7.9885361,-34.8558777,-34.857385
South_America,brazil,139931671,UNIEURO,-15.8320316,-48.03796711,-15.8304381,-15.8333125,-48.0349947,-48.0388306
South_America,brazil,141147247,ESCOLA SUPERIOR DE CI?NCIAS DA SA?DE,-15.78465808,-47.88692876,-15.7842058,-15.7850162,-47.886827,-47.8870456
South_America,brazil,141299774,Faculdade IPESU / RAREC,-8.07949888,-34.90922264,-8.0790672,-8.0798931,-34.9091263,-34.9093811
South_America,brazil,141453737,UPIS,-15.8154913,-47.91633983,-15.8148099,-15.8161673,-47.9156989,-47.9169665
South_America,brazil,141453846,Universidade Paulista,-15.81821533,-47.92253133,-15.8167201,-15.8197028,-47.9210741,-47.9239403
South_America,brazil,141488029,Universidade de Bras¨ªlia - Campus Universit¨¢rio Darcy Ribeiro - Gleba C,-15.73730375,-47.88205382,-15.733333,-15.7412717,-47.8798095,-47.8850376
South_America,brazil,141489660,Instituto de Qu¨ªmica (IQ),-15.76853815,-47.864782,-15.7676817,-15.7694256,-47.8639835,-47.8655751
South_America,brazil,141492700,Faculdade Fortium,-15.83938995,-47.91926868,-15.8387203,-15.8400644,-47.9186645,-47.9198694
South_America,brazil,141493853,Instituto de Educa??o Superior de Bras¨ªlia,-15.83498407,-47.91250341,-15.8343887,-15.8370025,-47.9109495,-47.9134971
South_America,brazil,141496305,Escola Superior do Minist¨¦rio P¨²blico da Uni?o,-15.81355235,-47.8855278,-15.812567,-15.8145266,-47.8844605,-47.886559
South_America,brazil,141498342,Funda??o Get¨²lio Vargas,-15.78092975,-47.87308203,-15.7802031,-15.7816564,-47.8723358,-47.8738282
South_America,brazil,141515263,Cl¨ªnica de Odontologia e Farm¨¢cia Escola - UNB,-15.76953373,-47.87414415,-15.7690849,-15.7699702,-47.8731723,-47.8751026
South_America,brazil,141517018,FTBB - Faculdade Teol¨®gica Batista de Bras¨ªlia,-15.75214538,-47.87928236,-15.7517132,-15.7526824,-47.8783091,-47.8802165
South_America,brazil,141524591,Faculdade Evang¨¦lica de Bras¨ªlia,-15.8114418,-47.91521955,-15.8110273,-15.8118421,-47.9147343,-47.9157114
South_America,brazil,141525233,IESPLAN - Faculdades Planalto,-15.80910342,-47.90819615,-15.8084837,-15.8098924,-47.9073221,-47.9089766
South_America,brazil,142371537,Campus da Universidade Federal do Par¨¢,-6.078540728,-49.90472187,-6.0769726,-6.0807133,-49.9032401,-49.9084532
South_America,brazil,142489902,UniCEUB - Centro Universit¨¢rio de Bras¨ªlia,-15.76712938,-47.89355166,-15.7643765,-15.7696981,-47.892481,-47.8950759
South_America,brazil,143131331,Faculdade Uniesp,-21.87854525,-51.85439671,-21.8770481,-21.8799362,-51.8531517,-51.8551014
South_America,brazil,143733632,Centro de Ensino Superior de Presidente Epit¨¢cio,-21.77598464,-52.10586292,-21.7738175,-21.7785172,-52.1034203,-52.1074738
South_America,brazil,144046533,Universidade Feevale Campus II,-29.66546384,-51.11913563,-29.6622556,-29.6681905,-51.1171438,-51.1208015
South_America,brazil,144146912,Unasp Engenheiro Coelho,-22.50316537,-47.16290784,-22.4900263,-22.5122778,-47.145639,-47.1750253
South_America,brazil,146582007,UEG - Eseffego,-16.66867991,-49.24154375,-16.667068,-16.6698793,-49.2404824,-49.2424204
South_America,brazil,146842627,Centro Universit¨¢rio de Maring¨¢,-23.44181834,-51.91799673,-23.439739,-23.4448309,-51.9149497,-51.9208387
South_America,brazil,148624679,Universidade Candido Mendes,-22.90114386,-43.17691915,-22.9008696,-22.9014697,-43.176561,-43.1771149
South_America,brazil,148713455,Faculdade de Mau¨¢ - FAMA,-23.67023822,-46.46493128,-23.6698253,-23.670917,-46.4642277,-46.4655899
South_America,brazil,149448527,Univesidade do Oeste do Paran¨¢,-24.7244868,-53.75270666,-24.7232545,-24.7253595,-53.7520174,-53.7537589
South_America,brazil,149603307,Pontif¨ªcia Universidade Cat¨®lica do Paran¨¢ PUCPR - C?mpus Toledo,-24.72733893,-53.76743046,-24.7218202,-24.7296798,-53.7650114,-53.7700302
South_America,brazil,153930953,Universidade Cat¨®lica Dom Bosco,-20.4085345,-54.61663912,-20.403012,-20.410117,-54.6135453,-54.6196647
South_America,brazil,154079145,Instituto de Matem¨¢tica e Estat¨ªstica,-23.55927888,-46.73205165,-23.5581258,-23.5601481,-46.730659,-46.7327103
South_America,brazil,154194632,Unesp - Campus,-21.81560009,-48.19868955,-21.8109572,-21.8166582,-48.194568,-48.2023286
South_America,brazil,155933517,Universidade Estadual de Montes Claros,-16.71971004,-43.87797399,-16.7176043,-16.7227565,-43.8759558,-43.8809286
South_America,brazil,155933998,Faculdades Ibituruna,-16.72317182,-43.87989658,-16.7216627,-16.7239794,-43.8786724,-43.8810157
South_America,brazil,158966874,Faculdade de Economia Administra??o e Contabilidade,-23.55844162,-46.72935547,-23.5574674,-23.5595439,-46.7275367,-46.7314397
South_America,brazil,158966875,"Faculdade de Filosofia, Letras e Ci¨ºncias Humanas",-23.56311887,-46.72292876,-23.5612287,-23.5641144,-46.7216778,-46.72673
South_America,brazil,158967597,Faculdade de Medicina Veterin¨¢ria e Zootecnia,-23.56976044,-46.73932317,-23.5686646,-23.5714067,-46.737858,-46.741207
South_America,brazil,159267182,Universidade de Santa Cruz do Sul,-29.69783717,-52.43829966,-29.6955932,-29.6996344,-52.4331385,-52.4422342
South_America,brazil,159339613,Universidade do Estado do Rio Grande do Norte,-5.206222375,-37.31473918,-5.203327,-5.2091457,-37.3112146,-37.3182326
South_America,brazil,159339734,Instituto Federal do Cear¨¢ - IFCE,-7.24552705,-39.3064177,-7.2443951,-7.246659,-39.3055032,-39.3073322
South_America,brazil,159437041,Universidade Federal de Uberl?ndia - Campus Educa,-18.90829457,-48.2632974,-18.9073879,-18.9095287,-48.2621132,-48.2648975
South_America,brazil,161268962,IFPB - Campo experimental,-6.8394525,-38.29686827,-6.8347811,-6.8448786,-38.2911732,-38.3040572
South_America,brazil,161388831,Universidade Paulista Ch¨¢cara Santo Ant?nio Campus I,-23.63269038,-46.6958717,-23.6322009,-23.633146,-46.6953217,-46.6963534
South_America,brazil,163175053,Instituto Federal do Tri?ngulo Mineiro,-19.76984755,-47.94850135,-19.7690865,-19.7703511,-47.9478964,-47.9491195
South_America,brazil,163175056,Universidade de Uberaba,-19.75884012,-47.96351318,-19.7544008,-19.7623115,-47.9604304,-47.9653978
South_America,brazil,163725581,Universidade Federal do Amap¨¢ - UNIFAP,-0.003771763,-51.08583817,0.0024679,-0.0101701,-51.0818662,-51.0890009
South_America,brazil,163812275,UFPR - Universidade Federal do Paran¨¢,-25.41232484,-49.24939505,-25.4091286,-25.4158249,-49.2464826,-49.2509906
South_America,brazil,165072799,,-25.40770068,-49.2772252,-25.4071415,-25.4083093,-49.2762188,-49.2787026
South_America,brazil,165072817,,-25.40566338,-49.2769783,-25.4049852,-25.4068653,-49.2758661,-49.2779355
South_America,brazil,165555773,Universidade Estadual de Ponta Grossa,-25.08664643,-50.16107523,-25.0862028,-25.0871272,-50.1604081,-50.1617305
South_America,brazil,165665572,Universidade do Extremo Sul Catarinense,-28.70298315,-49.41030639,-28.7004718,-28.7053747,-49.4066584,-49.4135785
South_America,brazil,166550090,Universidade Federal de Campina Grande - Campus Patos,-7.059149967,-37.27468914,-7.0574802,-7.0607461,-37.2723407,-37.277225
South_America,brazil,167282058,Universidade Estadual de Para¨ªba,-7.021392325,-37.26531806,-7.0208556,-7.0221566,-37.2647666,-37.266076
South_America,brazil,167420801,IV Hospital Veterin¨¢rio - CSTR-UFCG,-7.067665656,-37.28076703,-7.0668669,-7.0692394,-37.2789346,-37.2818367
South_America,brazil,167476259,Faculdades Integradas de Patos,-7.020798092,-37.2793665,-7.0195654,-7.0216411,-37.2779256,-37.2801598
South_America,brazil,167476261,Faculdades Integradas de Patos,-7.023311582,-37.27638854,-7.0230717,-7.0234828,-37.2762214,-37.2766092
South_America,brazil,168198088,UFFS,-27.10591112,-52.6167328,-27.1052573,-27.106431,-52.6161062,-52.6175707
South_America,brazil,168288311,Faculdade de Educa??o da Baixada Fluminense - UERJ Duque de Caxias,-22.77546648,-43.2969999,-22.7749943,-22.7759639,-43.2965774,-43.297484
South_America,brazil,168435045,Unoesc,-27.13452711,-52.59921527,-27.1323983,-27.1360251,-52.5974896,-52.600785
South_America,brazil,169294477,"Universidade Tuiuti do Paran¨¢, Campus Jardim Schaffer",-25.40084824,-49.29118166,-25.3996598,-25.4017289,-49.2891059,-49.2924548
South_America,brazil,169520047,ULBRA Manaus,-3.108724531,-59.97558549,-3.1053024,-3.1119429,-59.9731315,-59.9784101
South_America,brazil,169786602,Universidade Brasil,-21.9026259,-47.63843903,-21.9012723,-21.9053629,-47.637541,-47.6395668
South_America,brazil,171080551,Faculdade de Direito da Alta Paulista,-21.94145351,-50.51478716,-21.9404203,-21.9423319,-50.5136618,-50.5154582
South_America,brazil,172596686,Funda??o Helena Antipoff,-20.01506456,-44.08455386,-20.0132853,-20.0175848,-44.0810105,-44.0871664
South_America,brazil,172643357,UNIP Jaguar¨¦,-23.55144157,-46.73499526,-23.5499572,-23.5525509,-46.7344724,-46.7364815
South_America,brazil,173807899,Universidade Federal de Campina Grande,-6.762445436,-38.22816825,-6.7622002,-6.7634307,-38.2277715,-38.2285463
South_America,brazil,173877072,Uiversidade Federal de S?o Carlos - Campus Sorocaba,-23.5836151,-47.52360436,-23.5785979,-23.5880098,-47.5156619,-47.5307724
South_America,brazil,174506516,UNIVASF - Campus Juazeiro,-9.412293926,-40.51413299,-9.4094011,-9.413613,-40.5123326,-40.517401
South_America,brazil,175346682,"Faculdade de Filosofia, Ci¨ºncias e Letras de Cajazeiras",-6.883431494,-38.56291741,-6.8826432,-6.8841929,-38.5620704,-38.5641575
South_America,brazil,175591201,SENAI - CET ?talo Bologna,-5.1753876,-37.34313553,-5.1744919,-5.1762474,-37.3422998,-37.3440066
South_America,brazil,175591549,Universidade Potiguar (UnP),-5.1762014,-37.371102,-5.174432,-5.177957,-37.3692847,-37.3729133
South_America,brazil,175672360,PUC Minas - Campus S?o Gabriel,-19.85869962,-43.91847903,-19.8569254,-19.8600668,-43.9165057,-43.9203533
South_America,brazil,176440579,Unigranrio,-22.78906983,-43.30584807,-22.7880283,-22.7901657,-43.3048061,-43.3070274
South_America,brazil,176499520,Faculdade de Medicina,-23.55510042,-46.67066207,-23.5541048,-23.5561596,-46.669191,-46.6720428
South_America,brazil,179291142,Unesp - Faculdade de Odontologia,-21.20880899,-50.42819333,-21.2083676,-21.2093012,-50.4273892,-50.4297839
South_America,brazil,179321340,UFRB - Universidade Federal do Rec?ncavo da Bahia,-12.65756942,-39.09321346,-12.6541799,-12.6661794,-39.0822796,-39.1000497
South_America,brazil,179372429,Universidade Federal do Rio Grande do Norte - Campus Caic¨®,-6.467517033,-37.08522801,-6.4652298,-6.4694301,-37.0832778,-37.0869524
South_America,brazil,179689622,FEITEP,-23.42298858,-51.97108734,-23.4217454,-23.424031,-51.9697577,-51.9719527
South_America,brazil,179794016,IFES - Campus Cariacica,-20.32422936,-40.37141678,-20.3224843,-20.3255086,-40.3704482,-40.3730672
South_America,brazil,181447273,Universidade Tecnol¨®gica Federal do Paran¨¢,-24.06138357,-52.38562296,-24.0595811,-24.0634496,-52.3842509,-52.3878764
South_America,brazil,181660402,Instituto Adventista S?o Paulo,-22.879279,-47.22782519,-22.8752224,-22.8826991,-47.2234267,-47.2306219
South_America,brazil,182481067,Faculdade de Veterin¨¢ria,-22.90542885,-43.09841365,-22.9046583,-22.9061076,-43.0980241,-43.0989055
South_America,brazil,184021792,"Faculdade de Ci¨ºncias e Tecnologia, UNESP - Univ Estadual Paulista, C?mpus de Presidente Prudente, N¨²cleo Morumbi",-22.12775048,-51.41299998,-22.1272678,-22.128255,-51.412465,-51.4135511
South_America,brazil,184280442,Reitoria UFC,-3.742141808,-38.53879539,-3.7411754,-3.7429032,-38.5379386,-38.5398604
South_America,brazil,184283455,"Instituto Federal de Educa??o, Ci¨ºncia e Tecnologia do Cear¨¢ - Campus Fortaleza",-3.745033144,-38.53575381,-3.743221,-3.7458814,-38.5352083,-38.5371456
South_America,brazil,184936030,Universidade Anhanguera,-22.88684175,-43.12365181,-22.8862804,-22.8873171,-43.1229895,-43.1245645
South_America,brazil,185356966,Faculdade de Presidente Prudente,-22.16167297,-51.40804434,-22.1600195,-22.1635718,-51.4051694,-51.4109184
South_America,brazil,185356967,Universidade do Oeste Paulista,-22.11644241,-51.45533494,-22.10668,-22.1306301,-51.4457374,-51.4614013
South_America,brazil,186670145,Faculdade Est¨¢cio de S¨¢,-9.652382925,-35.7022141,-9.6522126,-9.6525533,-35.7020357,-35.7023925
South_America,brazil,186837238,Unesp - Faculdade de Medicina Veterin¨¢ria,-21.18421289,-50.43768041,-21.1810327,-21.1871995,-50.4322803,-50.4400616
South_America,brazil,191662039,Universidade Estadual da Para¨ªba - Campus V,-7.15852405,-34.87308745,-7.1576141,-7.1594448,-34.8721667,-34.8740332
South_America,brazil,191668072,IESP,-7.093372824,-34.85012085,-7.0911243,-7.0952962,-34.8482999,-34.8517216
South_America,brazil,192417120,Centro Universit¨¢rio Nove de Julho - Uninove,-23.65317166,-46.71133018,-23.6526306,-23.6538568,-46.7108147,-46.7123232
South_America,brazil,193045627,Universidade Federal de Ouro Preto - Campus Morro do Cuzeiro,-20.39707102,-43.50873504,-20.3943109,-20.3991044,-43.5030699,-43.5147177
South_America,brazil,193978693,Polo UAB Itapetinga,-15.2442989,-40.24974633,-15.2440301,-15.2445645,-40.2494642,-40.2499907
South_America,brazil,194569435,Instituto Federal Minas Gerais Campus Ouro Preto,-20.39521015,-43.50184878,-20.3932814,-20.3969879,-43.4994084,-43.5057979
South_America,brazil,194852527,Instituto Federal Sul-rio-grandense - Campus Charqueadas,-29.96402939,-51.62507442,-29.9624552,-29.9659169,-51.6239958,-51.6257441
South_America,brazil,195002486,COMPLEXO FACISA,-7.25025345,-35.87023108,-7.2495296,-7.2522224,-35.8688284,-35.8719519
South_America,brazil,198959123,UNIPAC,-20.50960345,-43.86071925,-20.5090958,-20.5101383,-43.8603212,-43.8611715
South_America,brazil,199128788,Universidade Aberta do Brasil,-20.6663063,-43.8094675,-20.6660497,-20.6665629,-43.8092223,-43.8097127
South_America,brazil,199361275,Universidade Estadual Paulista J¨²lio de Mesquista Filho - Campus Itapeva,-23.98178755,-48.88468528,-23.9800425,-23.9831645,-48.8821233,-48.8865873
South_America,brazil,199573840,Universidade Federal de Campina Grande,-6.783905855,-37.80232324,-6.7817388,-6.7877795,-37.8002966,-37.8046793
South_America,brazil,199660433,Universidade Presidente Ant?nio Carlos,-20.65037999,-43.75541199,-20.6496697,-20.6510607,-43.752912,-43.7567283
South_America,brazil,200529045,Faculdade Santa Rita,-20.62832482,-43.78165309,-20.6269156,-20.6292602,-43.78053,-43.7830926
South_America,brazil,202050615,Instituto de Artes e Comunica??o Social,-22.90147506,-43.12799938,-22.9012037,-22.9018527,-43.1275134,-43.1286111
South_America,brazil,202050616,Faculdade de Direito,-22.9038572,-43.12587791,-22.9034421,-22.9043954,-43.1256191,-43.1261174
South_America,brazil,202050746,Universidade Federal Fluminense,-22.90319023,-43.11669913,-22.9023728,-22.9037571,-43.1160477,-43.1172842
South_America,brazil,203986836,UNIFESP,-23.59169827,-46.6490959,-23.5910807,-23.5921615,-46.6486393,-46.6495428
South_America,brazil,204250013,IFPI - Campus Teresina Central,-5.088468567,-42.81040351,-5.0879824,-5.0890688,-42.8099651,-42.8110239
South_America,brazil,205333430,UNESPAR - Univesidade Estadual do Paran¨¢,-23.05003443,-52.46962542,-23.0476536,-23.0518826,-52.465812,-52.4735461
South_America,brazil,206103511,Faculdade Ing¨¢,-23.36744219,-51.89917889,-23.3649706,-23.3717579,-51.8937421,-51.9018495
South_America,brazil,206903580,UCDB Universidade Cat¨®lica Dom Bosco,-20.46087673,-54.61133325,-20.46035,-20.4615868,-54.6106198,-54.6116992
South_America,brazil,207113616,Universidade Federal da Para¨ªba/CAVN,-6.750275142,-35.64297114,-6.7416255,-6.7594342,-35.6330903,-35.6567657
South_America,brazil,207320842,Unipar Campus III,-23.76564768,-53.29398541,-23.7641007,-23.766528,-53.2920361,-53.295935
South_America,brazil,208352395,UFRPE - UAST,-7.955607513,-38.29551745,-7.9539844,-7.9570775,-38.2939515,-38.2978139
South_America,brazil,208450673,Pontif¨ªcia Universidade Cat¨®lica do Paran¨¢ PUCPR - C?mpus Veterin¨¢ria,-24.72173193,-53.78283993,-24.7194284,-24.7244455,-53.7759879,-53.787432
South_America,brazil,208794812,Centro Universit¨¢rio Serra dos ?rg?os,-22.43383374,-42.97927592,-22.4333112,-22.4345865,-42.9787988,-42.9797381
South_America,brazil,210320259,Faculdade Anhanguera,-30.11881386,-51.22354548,-30.1179974,-30.11977,-51.2228853,-51.224166
South_America,brazil,210509354,UniMSB - Centro Universit¨¢rio Moacyr Sereder Bastos,-22.90360896,-43.56245643,-22.9028554,-22.9044442,-43.5614436,-43.5633292
South_America,brazil,210997981,Faculdade Sudoeste Paulista,-23.0806861,-48.92438144,-23.0793519,-23.0814527,-48.9235847,-48.9262938
South_America,brazil,211000409,Faculdade Eduvale Avar¨¦,-23.09395519,-48.93239674,-23.0930805,-23.0945757,-48.9314061,-48.9331549
South_America,brazil,211185485,Unisul,-28.9510518,-49.46769703,-28.9496423,-28.9521521,-49.4658536,-49.4692791
South_America,brazil,215664425,Unisul,-27.62521685,-48.68265757,-27.6231375,-27.6273696,-48.6801442,-48.6857499
South_America,brazil,217158058,UFPB - Universidade Federal da Para¨ªba,-7.138608454,-34.84592038,-7.1318705,-7.1448714,-34.8385705,-34.8516397
South_America,brazil,217234755,IBMEC,-23.00588455,-43.31363585,-23.005598,-23.0061711,-43.3133076,-43.3139641
South_America,brazil,217427753,UFRGS Campus Ol¨ªmpico,-30.04988789,-51.18213196,-30.0483435,-30.0517953,-51.1791061,-51.1844064
South_America,brazil,219464296,Universidade Estadual de Ponta Grossa,-25.09239611,-50.10415235,-25.0885311,-25.0998607,-50.0920319,-50.110224
South_America,brazil,219474972,IFF Campus Maca¨¦,-22.40528409,-41.84472894,-22.4037163,-22.406305,-41.8432158,-41.8462065
South_America,brazil,220689022,Universidade Est¨¢cio de S¨¢,-22.97706347,-49.89665503,-22.9762049,-22.9778661,-49.8958044,-49.8976053
South_America,brazil,220770893,Universidade Federal do Rio Grande - FURG,-32.07179339,-52.16503882,-32.0621578,-32.0807802,-52.1569863,-52.1779804
South_America,brazil,221552586,"Instituto Federal de Educa??o, Ci¨ºncia e Tecnologia de S?o Paulo - Campus Guarulhos",-23.43905414,-46.53735234,-23.4375174,-23.4401652,-46.5368024,-46.5379682
South_America,brazil,222961188,Instituto Federal Farroupilha,-29.709379,-55.52830854,-29.7041028,-29.7147843,-55.5215191,-55.5339947
South_America,brazil,223205687,Universidade Federal de S?o Paulo,-23.57902042,-46.44429178,-23.577638,-23.5805869,-46.4429632,-46.4460902
South_America,brazil,223381390,Anhanguera Uniderp,-20.43877343,-54.54006842,-20.4366222,-20.4430099,-54.5340941,-54.5428647
South_America,brazil,224934656,Universidade e Col¨¦gio Cora??o de Jesus,-27.59482041,-48.5469238,-27.5939787,-27.595906,-48.5456122,-48.5474581
South_America,brazil,224936362,CEFET-MG - Campus VI,-19.93371782,-43.98590295,-19.9314412,-19.9348251,-43.9843011,-43.9879255
South_America,brazil,226552717,Faculdade Est¨¢cio de S¨¢,-27.57329913,-48.60557504,-27.5720951,-27.5746198,-48.6043205,-48.6065628
South_America,brazil,226745314,Universidade Anhanguera de S?o Paulo,-23.5033443,-46.63000533,-23.5028154,-23.5038124,-46.6293072,-46.6306799
South_America,brazil,226756679,PUC-SP,-23.5379891,-46.67123145,-23.5371127,-23.5388655,-46.6703026,-46.6721603
South_America,brazil,227554250,Infraestrutura PTC da UFOPA,-2.421937909,-54.74039095,-2.4212536,-2.4227725,-54.7392982,-54.7408677
South_America,brazil,227718739,Est¨¢cio de S¨¢,-22.39936636,-41.81536983,-22.3985424,-22.4005314,-41.8142902,-41.8170574
South_America,brazil,228404340,Faculdade de Tecnologia da Unicamp - FT,-22.56159274,-47.42382936,-22.5607405,-22.5628855,-47.4221961,-47.4247994
South_America,brazil,228435104,UEPG ¡ª Universidade Estadual de Ponta Grossa (C?mpus Palmeira),-25.41920565,-49.9996434,-25.4189594,-25.4196439,-49.9993179,-50.0001872
South_America,brazil,228446592,UEPG ¡ª Universidade Estadual de Ponta Grossa (C?mpus Jaguaria¨ªva),-24.25329704,-49.70720629,-24.2527686,-24.253913,-49.7060389,-49.7077087
South_America,brazil,228464680,"Instituto de Bioci¨ºncias, Letras e Ci¨ºncias Exatas de S?o Jos¨¦ do Rio Preto",-20.78598285,-49.36003782,-20.7825342,-20.7878933,-49.3571682,-49.3629115
South_America,brazil,229061426,P¨®lo Universit¨¢rio de Maca¨¦,-22.38983131,-41.80679674,-22.3881584,-22.3909146,-41.80499,-41.8087902
South_America,brazil,229587118,Funda??o Dom Andr¨¦ Arcoverde,-22.2435198,-43.70986344,-22.2423497,-22.2441222,-43.7086722,-43.7110859
South_America,brazil,229735216,IFMS Instituto Federal de Mato Grosso do Sul,-22.07991055,-53.45414586,-22.0690085,-22.0841249,-53.450389,-53.4681213
South_America,brazil,230149814,Universidade Aberta do Brasil,-3.539491906,-40.45437749,-3.5391149,-3.5396919,-40.4540596,-40.4547226
South_America,brazil,231007275,Universidade do Sagrado Cora??o ¡ª USC,-22.32989778,-49.05307575,-22.3271603,-22.3323953,-49.0503651,-49.0549171
South_America,brazil,231017502,Universidade de S?o Paulo ¡ª USP,-22.33466637,-49.05921627,-22.3326369,-22.3366904,-49.0559545,-49.0610106
South_America,brazil,231019122,Universidade Estadual Paulista - Unesp,-22.34909446,-49.0322562,-22.342015,-22.3533544,-49.0271152,-49.0355175
South_America,brazil,231495293,Universidade S?o Francisco,-22.97961446,-46.53459107,-22.9754876,-22.9823537,-46.5328695,-46.537322
South_America,brazil,232061646,Universidade do Oeste de Santa Catarina,-26.95988821,-52.54670386,-26.9589652,-26.9609505,-52.5460954,-52.5476229
South_America,brazil,232197560,IFAL - Campus Macei¨®,-9.664165344,-35.73064422,-9.6627242,-9.6652548,-35.7297119,-35.7322893
South_America,brazil,232291150,,-23.55936942,-46.64223039,-23.5590044,-23.5599026,-46.6416486,-46.6425344
South_America,brazil,233750796,INEC - Faculdade de Castro,-24.78743618,-50.00523003,-24.7868708,-24.787711,-50.0046534,-50.0055412
South_America,brazil,234445216,Universidade Cat¨®lica de Santos,-23.94634978,-46.32246315,-23.9457655,-23.9469978,-46.3219306,-46.3233416
South_America,brazil,234460396,,-23.94326685,-46.3319582,-23.9427719,-23.9437618,-46.3312085,-46.3327079
South_America,brazil,234502265,Centro Universit¨¢rio Planalto,-15.83696349,-48.02637159,-15.8347125,-15.8383648,-48.0249203,-48.0274791
South_America,brazil,234506682,Faculdade de Medicina,-16.6740968,-49.24412828,-16.6737625,-16.6744292,-49.2437279,-49.2445306
South_America,brazil,234579104,UniCeub,-15.83600631,-48.04680128,-15.8347824,-15.8367709,-48.0454263,-48.0481644
South_America,brazil,234775145,"Escola de Artes, Ci¨ºncias e Humanidades",-23.48434568,-46.50258243,-23.4786973,-23.4881356,-46.497446,-46.506782
South_America,brazil,234809496,Ulbra - Campus Santar¨¦m,-2.45494605,-54.7142314,-2.4530417,-2.4558383,-54.7127692,-54.7147782
South_America,brazil,234884912,Universidade Rergional do Cariri - URCA,-7.22743705,-39.32538505,-7.2268724,-7.2280017,-39.3248085,-39.3259616
South_America,brazil,234900798,,-7.238272806,-39.41618929,-7.2377045,-7.2390429,-39.4152963,-39.416889
South_America,brazil,234901025,,-7.239345635,-39.41476398,-7.2382317,-7.2406921,-39.4127989,-39.4161675
South_America,brazil,235396597,Universidade Federal de Alagoas,-9.699812504,-36.68715571,-9.6955852,-9.7024738,-36.6852638,-36.6901575
South_America,brazil,235410717,Rua A (Loteamento Espa?o Verde),-13.02454947,-39.61371389,-13.021237,-13.0262514,-39.6106691,-39.6157921
South_America,brazil,235414131,UNEB Uiversidade do Estado da Bahia,-11.57124772,-39.27128569,-11.5707336,-11.5718004,-39.2707372,-39.2719656
South_America,brazil,235481230,Universidade Fumec,-19.9436947,-43.92558964,-19.942995,-19.9443356,-43.9246099,-43.9261822
South_America,brazil,235765295,UNEB - Escola Agr¨ªcola de Coit¨¦,-11.51990425,-39.28467806,-11.5179777,-11.5225822,-39.2797335,-39.2893761
South_America,brazil,235997930,UniRitter Campus Zona Sul,-30.08017631,-51.21976953,-30.0788444,-30.081327,-51.2185902,-51.2210884
South_America,brazil,236997896,Universidade Paulista,-23.45891048,-47.41898359,-23.4568192,-23.4610612,-47.4146914,-47.4216812
South_America,brazil,237054618,UNINOVE - Campus Vila Prudente,-23.58407096,-46.5812396,-23.5834495,-23.5846466,-46.580419,-46.5818739
South_America,brazil,237314819,Universidade Federal do Cariri,-7.257775306,-39.30368374,-7.254657,-7.2589995,-39.302138,-39.3051897
South_America,brazil,237846551,Faculdade Pit¨¢goras,-18.94828461,-48.28147771,-18.9460077,-18.9498187,-48.2799648,-48.2825021
South_America,brazil,238217019,Centro Universit¨¢rio de Belo Horizonte,-19.97081338,-43.96358137,-19.969473,-19.974431,-43.9616723,-43.9653433
South_America,brazil,238265631,Centro de Ci¨ºncias Exatas,-20.27536612,-40.30316034,-20.274618,-20.2764032,-40.3021497,-40.304667
South_America,brazil,238522427,Faculdade de Juazeiro do Norte - FJN,-7.2053673,-39.30939585,-7.2050494,-7.2056852,-39.3088686,-39.3099231
South_America,brazil,238680247,Fadenorte,-15.95058678,-44.85923475,-15.9494812,-15.9514989,-44.8581753,-44.8604176
South_America,brazil,239936662,Universidade Federal do Piau¨ª,-6.830922725,-40.61621408,-6.8306743,-6.8311591,-40.615862,-40.6165648
South_America,brazil,240174008,Universidade Federal da Fronteira Sul,-25.79196777,-53.52838148,-25.7866938,-25.7959404,-53.5239104,-53.5312218
South_America,brazil,240358166,"Universidade Federal do Par¨¢, Campus Bragan?a II",-1.069450813,-46.78396336,-1.0667647,-1.0759335,-46.7813047,-46.7890694
South_America,brazil,240438217,Faculdade Mato Grosso do Sul,-20.46766194,-54.63327253,-20.4668193,-20.4679579,-54.632264,-54.6343729
South_America,brazil,240827019,Universidade Estadual Vale do Acara¨² - Campus Bet?nia,-3.676417335,-40.34068239,-3.6751493,-3.6784376,-40.3384537,-40.3418623
South_America,brazil,242755948,Universidade Jos¨¦ do Ros¨¢rio Vellano,-21.45116912,-45.94634838,-21.4460591,-21.4602667,-45.9417022,-45.9480758
South_America,brazil,243064103,Faculdade de Ci¨ºncias Sociais e Agr¨¢rias de Itapeva - FAIT,-23.96189775,-48.88352244,-23.9594107,-23.9651954,-48.8805154,-48.886328
South_America,brazil,243163568,Unieuro,-15.74112262,-47.90287654,-15.7404849,-15.7418874,-47.902035,-47.904056
South_America,brazil,243163573,Universidade Cat¨®lica de Bras¨ªlia,-15.74179151,-47.90245961,-15.741424,-15.7423813,-47.9018957,-47.9037646
South_America,brazil,243238221,IFRS Campus Restinga,-30.1413477,-51.1307129,-30.1403388,-30.1422067,-51.1287808,-51.1325385
South_America,brazil,243471368,UNIDAVI,-27.20973988,-49.64331725,-27.2088385,-27.2111466,-49.6425106,-49.6454277
South_America,brazil,243471373,UNIDAVI - PUNF,-27.21885701,-49.64764263,-27.2173583,-27.2198461,-49.6469531,-49.6485399
South_America,brazil,243551352,UniRitter - Campus FAPA,-30.03338071,-51.12383703,-30.0303128,-30.0359921,-51.12126,-51.1255614
South_America,brazil,244216056,UEPA - Universidade Estadual do Par¨¢,-1.280952325,-47.90975413,-1.2801685,-1.2820479,-47.9089734,-47.9102049
South_America,brazil,244239517,Instituto Federal do Par¨¢,-1.303753021,-47.94932672,-1.2971342,-1.3103207,-47.9419562,-47.9553194
South_America,brazil,244240278,UFPA - Universidade Federal do Par¨¢,-1.298987314,-47.90063217,-1.29668,-1.3021137,-47.8987249,-47.9019694
South_America,brazil,244244148,Universidade Federal do Par¨¢,-1.311737077,-47.94765204,-1.3102783,-1.314699,-47.9437274,-47.9490354
South_America,brazil,244365263,Faculdade de Castanhal,-1.29618202,-47.95860588,-1.2950918,-1.2979281,-47.9572534,-47.9600536
South_America,brazil,244635239,Universidade Federal de Campina Grande - Campus Sousa,-6.790159189,-38.25747492,-6.7811899,-6.793852,-38.2552542,-38.2628931
South_America,brazil,245577979,Instituto Porto Alegre Unidade Central,-30.03405549,-51.19718823,-30.0331407,-30.0348216,-51.1959164,-51.1985801
South_America,brazil,245577980,IPA Unidade Dona Leonor,-30.03550572,-51.20162687,-30.0349978,-30.0362485,-51.2012424,-51.2020053
South_America,brazil,24610282,Universidade Federal do Paran¨¢ Campus Centro Polit¨¦cnico,-25.45059783,-49.23273701,-25.4445223,-25.4577364,-49.2298394,-49.2388543
South_America,brazil,24611303,Col¨¦gio,-25.42406339,-49.26601585,-25.4227073,-25.4250789,-49.2643291,-49.2676336
South_America,brazil,247243432,Uninove - Campus Memorial,-23.52921355,-46.66628906,-23.5288201,-23.5298677,-46.6655803,-46.6670212
South_America,brazil,24781907,Pontif¨ªcia Universidade Cat¨®lica do Paran¨¢ PUCPR,-25.45284093,-49.25037037,-25.4475437,-25.4580332,-49.2486025,-49.2530485
South_America,brazil,248655974,"Instituto Federal de Educa??o, Ci¨ºncia e Tecnologia do Cear¨¢ - Campus Maracana¨²",-3.872006163,-38.61126094,-3.8706979,-3.8732179,-38.6103518,-38.6132195
South_America,brazil,249431698,UNEB Universidade do Estado da Bahia,-11.67037384,-39.00387993,-11.669771,-11.6707981,-39.0027413,-39.0047208
South_America,brazil,249904522,FATEC,-22.95086518,-49.89569742,-22.9494275,-22.95212,-49.8935252,-49.896934
South_America,brazil,250536004,FAJESU - Faculdade Jesus Maria e Jos¨¦,-15.80037902,-48.07518558,-15.7996641,-15.8012204,-48.0742286,-48.0761249
South_America,brazil,251273830,Universidade Federal do Piau¨ª - Campus Ministro Reis Velloso,-2.9085424,-41.75451643,-2.9068351,-2.9093938,-41.7537001,-41.7553274
South_America,brazil,251421188,Centro Universit¨¢rio de Caratinga - UNEC I,-19.79107512,-42.13844895,-19.7905667,-19.7917537,-42.1378508,-42.1389625
South_America,brazil,251421956,UNEC II,-19.75004601,-42.13442034,-19.7483497,-19.751728,-42.1337073,-42.1358565
South_America,brazil,252221756,Faculdade de Tecnologia de S?o Paulo,-23.52976205,-46.6328172,-23.5287852,-23.5303138,-46.6319469,-46.6335836
South_America,brazil,252280754,Unip,-23.51288192,-46.6098494,-23.5122632,-23.5134176,-46.6091015,-46.6103857
South_America,brazil,252349473,Faculdade de Ci¨ºncias Aplicadas da Unicamp,-22.55347192,-47.42974704,-22.5488022,-22.5577972,-47.4246241,-47.4319715
South_America,brazil,252376385,UnB - Campus Ceil?ndia,-15.84530604,-48.09940286,-15.8422908,-15.8473212,-48.0958079,-48.1037578
South_America,brazil,252552340,Universidade de Santo Amaro - UNISA Campus I,-23.73102056,-46.71218405,-23.7289355,-23.7321462,-46.70991,-46.7136947
South_America,brazil,254565659,Universidade Federal de Ci¨ºncias da Sa¨²de,-30.03134612,-51.22091718,-30.0307567,-30.0319284,-51.2199791,-51.2215749
South_America,brazil,255911688,Faculdade Cenecista de Joinville - CNEC,-26.31868172,-48.84579708,-26.3183477,-26.3190003,-48.8452629,-48.8460713
South_America,brazil,256373175,Faculdade Anhanguera de Jaragu¨¢ do Sul,-26.48634991,-49.06164688,-26.4858608,-26.4872503,-49.0605303,-49.0625655
South_America,brazil,257118132,Escola de Belas Artes - UFBA,-12.99140261,-38.52184385,-12.990649,-12.9918259,-38.5211042,-38.522461
South_America,brazil,257148078,Campus Facens,-23.47026493,-47.42990345,-23.468816,-23.472289,-47.4273362,-47.4317071
South_America,brazil,257645242,IFSC,-26.47722783,-49.09022678,-26.4766176,-26.4779241,-49.0895147,-49.0905769
South_America,brazil,257857995,IFES Campus Vila Velha,-20.3483172,-40.30875842,-20.3472275,-20.3498752,-40.3075256,-40.3098531
South_America,brazil,257874468,Universidade Federal do Cear¨¢,-4.9793324,-39.0565234,-4.9786679,-4.9809617,-39.05545,-39.0574597
South_America,brazil,258038337,FASAM - Faculdade Sul-Americana,-16.72171569,-49.23666348,-16.7210415,-16.7227703,-49.2356942,-49.237495
South_America,brazil,258365798,UEM - Unversidade Estadual de Maring¨¢,-23.78000873,-53.32444168,-23.778498,-23.7805363,-53.3238114,-53.3265726
South_America,brazil,258365800,Bibilioteca Unipar,-23.75721564,-53.30194822,-23.7570617,-23.7573733,-53.3017788,-53.3021195
South_America,brazil,258498432,Unicat¨®lica - Centro Universit¨¢rio Cat¨®lica de Quixad¨¢,-4.974622929,-39.01468714,-4.9731039,-4.9760887,-39.0133118,-39.0159605
South_America,brazil,258878908,Universidade Federal do Pampa,-30.33469951,-54.36222501,-30.3315736,-30.3367592,-54.358918,-54.3663531
South_America,brazil,259237782,Faculdades Integradas de Itarar¨¦,-24.1055479,-49.34015758,-24.1046266,-24.1064083,-49.3395767,-49.3407029
South_America,brazil,260553076,Instituto Federal do Estado de S?o Paulo,-21.78556181,-52.11168129,-21.784756,-21.7865039,-52.110875,-52.112935
South_America,brazil,261217974,UNILESTE MG,-19.51605787,-42.60993514,-19.5126437,-19.517871,-42.6086524,-42.6128077
South_America,brazil,261990681,E.E. Apar¨ªcio Silva Rillo,-28.65667933,-56.01246735,-28.6560723,-28.6573593,-56.0114283,-56.013552
South_America,brazil,262298747,Unipampa,-28.62907162,-56.03847473,-28.6282354,-28.63018,-56.0376852,-56.0396968
South_America,brazil,262298750,IFFar - Campus S?o Borja,-28.66743748,-55.9945655,-28.6665841,-28.6682626,-55.993621,-55.995667
South_America,brazil,262400983,Faculdade Evang¨¦lica,-15.80985923,-48.0865958,-15.8095986,-15.8101245,-48.0863714,-48.0868129
South_America,brazil,262564901,C. Sagrado Cora??o de Jesus,-28.6615026,-56.00722762,-28.6611972,-28.661848,-56.0064406,-56.0075993
South_America,brazil,262566832,E.E. Arneldo Matter,-28.64850663,-56.00332523,-28.647724,-28.6491316,-56.0027472,-56.0047106
South_America,brazil,263290462,UDESC Joinville,-26.25295091,-48.85473116,-26.251835,-26.2548493,-48.8540702,-48.8562508
South_America,brazil,263567014,Univille,-26.25127846,-48.8559203,-26.2496054,-26.2539202,-48.8542009,-48.8581743
South_America,brazil,263676558,Universidade Federal do Esp¨ªrito Santo,-18.67662964,-39.86222935,-18.672967,-18.6777649,-39.8575215,-39.8646929
South_America,brazil,263808705,Faculdades Integradas do Vale do Iva¨ª,-24.23627235,-51.66580125,-24.2354715,-24.2370732,-51.6649319,-51.6666706
South_America,brazil,264338534,UFAL - Centro de Ci¨ºncias Agr¨¢rias,-9.465386317,-35.82975668,-9.4630411,-9.4682081,-35.8246807,-35.8356024
South_America,brazil,265052143,UNCISAL,-9.673419,-35.7590022,-9.6729314,-9.6742749,-35.7583227,-35.7595266
South_America,brazil,265275751,Universidade Federal de Mato Grosso,-15.61182734,-56.06697853,-15.6051233,-15.6157855,-56.0581102,-56.073818
South_America,brazil,265732584,Universidade Federal do Par¨¢,-1.471808496,-48.45153596,-1.4581155,-1.4783798,-48.4366674,-48.4595762
South_America,brazil,267063800,Universidade Federal da Bahia,-14.87765229,-40.8117382,-14.8762842,-14.8786499,-40.8107275,-40.8134115
South_America,brazil,267086030,Universidade Estadual de Maring¨¢,-23.66335106,-52.62453738,-23.6614575,-23.6650547,-52.6228969,-52.627094
South_America,brazil,267107063,Centro Universit¨¢rio S?o Camilo,-23.59736455,-46.60921898,-23.5967667,-23.5979624,-46.6087793,-46.6096586
South_America,brazil,267156591,Universidade Federal de Sergipe,-10.92949859,-37.67068427,-10.9253431,-10.9338901,-37.6670313,-37.6731769
South_America,brazil,267229198,UnP Nascimento de Castro,-5.814074783,-35.21594355,-5.8131204,-5.8147908,-35.2154862,-35.2167221
South_America,brazil,269439508,FACINOR,-22.92045348,-53.1352556,-22.9200145,-22.9208924,-53.1347783,-53.1357329
South_America,brazil,271258999,Universidade de Bras¨ªlia - Campus do Gama,-15.98975558,-48.04484643,-15.9880995,-15.9906884,-48.0429882,-48.0464026
South_America,brazil,272971957,Universidade Estadual da Para¨ªba - Campus III,-6.86739755,-35.49956046,-6.8665849,-6.8681499,-35.4988462,-35.5007564
South_America,brazil,274429146,Campus Unicruz,-28.56928752,-53.6230687,-28.5666655,-28.5722565,-53.6189232,-53.6262658
South_America,brazil,275283331,Universidade de Santo Amaro -  C?mpus Registro,-24.49544137,-47.8464574,-24.4950321,-24.4958034,-47.846225,-47.846728
South_America,brazil,275283337,Universidade Centro de Ensino Superior de Maring¨¢,-24.49520994,-47.84523446,-24.4951107,-24.4953498,-47.8450977,-47.8454091
South_America,brazil,275283381,Universidade Norte do Paran¨¢,-24.49705585,-47.84053587,-24.4968589,-24.4972635,-47.8403943,-47.8408335
South_America,brazil,275288500,Univesp,-24.49928944,-47.84813804,-24.4989868,-24.4996219,-47.8479225,-47.8485504
South_America,brazil,275856600,UNESP - Campus Vila Tupi,-24.50131943,-47.85232955,-24.5008296,-24.5017066,-47.8514977,-47.8528283
South_America,brazil,276636672,Escola Superior de Propaganda e Marketing ESPM,-23.59000279,-46.63973445,-23.5893797,-23.5905235,-46.6394277,-46.6407205
South_America,brazil,276636673,Centro Universit¨¢rio Belas Artes de S?o Paulo,-23.58927073,-46.6402177,-23.5889719,-23.5895769,-46.6398085,-46.6406152
South_America,brazil,277875920,Faculdade Baiana de Medicina,-12.95925463,-38.45369463,-12.9580383,-12.9605383,-38.4523256,-38.4551226
South_America,brazil,278729249,UEL - Universidade Estadual de Londrina,-22.83982223,-51.98726613,-22.8389684,-22.8406761,-51.9863984,-51.9881338
South_America,brazil,280074753,Universidade Metodista,-23.70666403,-46.5713452,-23.7060019,-23.7073399,-46.5708234,-46.5718695
South_America,brazil,280172806,FANP - Faculdade do Noroeste Paranaense,-23.1741347,-52.2006228,-23.1736016,-23.1746678,-52.2000642,-52.2011814
South_America,brazil,280324675,Univale,-18.8390238,-41.90463826,-18.8345156,-18.8448247,-41.8997935,-41.906748
South_America,brazil,283015924,Universidade Franciscana Conjunto I,-29.68435817,-53.81060822,-29.6837314,-29.684962,-53.8103017,-53.811051
South_America,brazil,283539098,UNIS campus 1,-21.5603902,-45.44370065,-21.5599498,-21.5606508,-45.4433608,-45.444146
South_America,brazil,284040141,Faculdade Ruy Barbosa,-13.0098043,-38.48119703,-13.0092978,-13.0103786,-38.4807593,-38.4817224
South_America,brazil,284042863,Unime - Uni?o Metropolitana para o Desenvolvimento da Educa??o e Cultura,-12.89093697,-38.31445966,-12.8893626,-12.8924743,-38.3126459,-38.3168517
South_America,brazil,284063184,UTFPR - Universidade Tecnol¨®gica Federal do Paran¨¢,-25.05159972,-50.13132733,-25.0500253,-25.0545598,-50.1285415,-50.1336155
South_America,brazil,285359902,Faculdade de Agronomia,-15.32259514,-49.13976419,-15.3208585,-15.3235987,-49.1373597,-49.1425285
South_America,brazil,285365051,SEUNE,-9.660283067,-35.73205588,-9.65923,-9.660646,-35.7314908,-35.7328261
South_America,brazil,286465260,URCAMP - Campus Alegrete,-29.78381964,-55.79191191,-29.7835714,-29.784059,-55.7915031,-55.7923437
South_America,brazil,286482551,UNIFG - Centro Universit¨¢rio dos Guararapes,-8.161957888,-34.91679123,-8.1611805,-8.1627406,-34.9158725,-34.9182602
South_America,brazil,28738299,Pontif¨ªcia Universidade Cat¨®lica - Contagem,-19.94068021,-44.07627119,-19.9374121,-19.9454351,-44.0747988,-44.0770304
South_America,brazil,288006442,FAMA - Faculdade Metropilitana de An¨¢polis,-16.29460447,-48.96911158,-16.2938994,-16.2950027,-48.9683041,-48.9699792
South_America,brazil,288144000,Unievangelica,-16.29118393,-48.94226543,-16.2870543,-16.2964044,-48.9410023,-48.9458947
South_America,brazil,288708488,Unipar-Campus Veterin¨¢ria,-23.76460745,-53.27296165,-23.7612552,-23.7674221,-53.2705083,-53.275874
South_America,brazil,289451775,Universidade Metodista de S?o Paulo (Campus Rudge Ramos ),-23.65448947,-46.57638356,-23.6530664,-23.6555931,-46.5743623,-46.5785033
South_America,brazil,289770152,Universidade Federal de Goi¨¢s - Unidade Acad¨ºmica de Ci¨ºncias Sociais Aplicadas - UAECSA,-15.94129613,-50.13536997,-15.9407495,-15.9418798,-50.1347486,-50.1358491
South_America,brazil,289770166,Universidade Estadual de Goi¨¢s,-15.9376136,-50.13680178,-15.9372066,-15.9380439,-50.1362662,-50.1372982
South_America,brazil,29029877,CEFET-MG - Campus II,-19.93881999,-43.99928558,-19.9381231,-19.9403017,-43.9979481,-44.0007162
South_America,brazil,290653696,"Universidade Federal do ABC, Campus S?o Bernardo do Campo",-23.67809315,-46.56441187,-23.6766276,-23.6786298,-46.5624015,-46.5665026
South_America,brazil,292014977,IFAL - Instituto Federal de Alagoas,-9.40742106,-36.65524243,-9.4061139,-9.4085472,-36.654257,-36.6563538
South_America,brazil,29221205,Est¨¢cio de S¨¢,-19.92267215,-43.95953362,-19.9218237,-19.9233014,-43.9592277,-43.9607137
South_America,brazil,292235901,Universidade Tecnol¨®gica Federal do Paran¨¢,-24.7333161,-53.76531215,-24.7320928,-24.7343048,-53.7636096,-53.7667424
South_America,brazil,292669729,Universidade Federal de Vi?osa,-20.76266841,-42.86854672,-20.7532161,-20.7820107,-42.8529067,-42.8785384
South_America,brazil,293065973,UNESP,-20.5097643,-47.38607374,-20.5082388,-20.5121596,-47.383983,-47.3883066
South_America,brazil,295037954,UNIFRAN,-20.5706618,-47.40138004,-20.5685899,-20.5738809,-47.3985666,-47.4057091
South_America,brazil,295840690,FAG C?mpus Toledo,-24.72219568,-53.76176334,-24.7207899,-24.72361,-53.7607064,-53.7625915
South_America,brazil,296749408,Falculdades Alfa - Alves Faria,-16.64240584,-49.30752157,-16.6395419,-16.6438426,-49.3060481,-49.3095471
South_America,brazil,296898837,UCS - Universidade de Caxias do Sul,-29.16198638,-51.15003578,-29.1579483,-29.1668458,-51.1417859,-51.154798
South_America,brazil,297571328,Instituto Federal de S?o Paulo - C?mpus Registro,-24.53277796,-47.86894694,-24.5322805,-24.5345222,-47.8680259,-47.8702987
South_America,brazil,297597557,URI Campus de Erechim,-27.64879477,-52.27026871,-27.6468643,-27.6508646,-52.2671892,-52.2724383
South_America,brazil,297762600,FEUC,-22.89894579,-43.55385211,-22.8985092,-22.8994061,-43.5532037,-43.5548126
South_America,brazil,297911934,Universidade Regional do Alto Uruguai e das Miss?es - URI,-28.27710295,-54.27087971,-28.2750795,-28.2791586,-54.2685152,-54.2731286
South_America,brazil,298013665,UNIFAE,-21.96482203,-46.79141304,-21.9641136,-21.9658656,-46.7898489,-46.7918765
South_America,brazil,298591282,UNIFACEF,-20.53772256,-47.38954954,-20.5373773,-20.5380239,-47.3891889,-47.3897995
South_America,brazil,300856616,"Instituto Federal de Educa??o, Ci¨ºncia e Tecnologia de S?o Paulo",-21.78442478,-48.21092477,-21.7829232,-21.7853229,-48.209558,-48.2118071
South_America,brazil,30105200,UFRJ - Campus Praia Vermelha,-22.95404371,-43.17531106,-22.9515042,-22.9565186,-43.1733169,-43.1773986
South_America,brazil,301127658,?rea da Universidade Federal do Amazonas,-4.094457864,-63.15138736,-4.0928354,-4.0955877,-63.1500506,-63.1518974
South_America,brazil,30136579,UNIRIO - Campus V,-22.95486473,-43.16982138,-22.954063,-22.955561,-43.1683041,-43.1713722
South_America,brazil,301417279,Universidade Federal da Para¨ªba,-6.971919717,-35.71729714,-6.9642591,-6.9787346,-35.7079755,-35.7289898
South_America,brazil,305143644,Universidade Federal de Uberl?ndia (Campus Gl¨®ria),-18.93990978,-48.21496481,-18.9379631,-18.9448368,-48.2105271,-48.2185396
South_America,brazil,305161859,UFU - Campus Umuarama,-18.88367259,-48.25999087,-18.8807923,-18.8866906,-48.257208,-48.261935
South_America,brazil,305490860,UFMA - Campus Avan?ado,-5.50712225,-47.4255511,-5.5057833,-5.5085096,-47.4222484,-47.4281279
South_America,brazil,305933648,UNISANTA - Universidade Santa Cec¨ªlia,-23.96440641,-46.32049734,-23.9633562,-23.9647344,-46.3196442,-46.3214784
South_America,brazil,307217648,UniRV - Universidade de Rio Verde - Campus Caiap?nia,-16.95882924,-51.81552,-16.958402,-16.9593421,-51.8152797,-51.8162194
South_America,brazil,307771588,Funda??o Educacional do Munic¨ªpio de Assis,-22.64409557,-50.42102956,-22.6417333,-22.6460595,-50.4186793,-50.4239269
South_America,brazil,307926097,Escola Superior de Tecnologia - UEA,-3.0916873,-60.01789991,-3.0912989,-3.0923554,-60.0172075,-60.0186488
South_America,brazil,308961702,Pontificia Universidade Cat¨®lica do Rio de Janeiro,-22.9795986,-43.23308991,-22.9772634,-22.9821416,-43.2309801,-43.2350155
South_America,brazil,309828847,Faculdade Maur¨ªcio de Nassau,-10.92580816,-37.07311813,-10.9251297,-10.926239,-37.0721591,-37.0742216
South_America,brazil,310894963,UCEFF,-27.16587624,-53.70174382,-27.1650945,-27.1670145,-53.7005509,-53.7027937
South_America,brazil,311769465,Faculdade Cesusc,-27.50050286,-48.51449158,-27.4993593,-27.501042,-48.5134229,-48.5161048
South_America,brazil,312566339,Faculdade de Tecnologia de Carapicu¨ªba,-23.51714523,-46.83516415,-23.5165575,-23.5184498,-46.8336088,-46.8360189
South_America,brazil,312567012,Faculdade Nossa Cidade,-23.51887668,-46.83199649,-23.5181279,-23.5196957,-46.8309277,-46.8332877
South_America,brazil,312700389,Universidade Aberta do Brasil,-2.242535125,-49.49781568,-2.2420907,-2.2429784,-49.4973878,-49.4982327
South_America,brazil,312909608,FATEC Cap?o Bonito,-23.98933635,-48.33510604,-23.9878751,-23.9909256,-48.3346571,-48.3355914
South_America,brazil,313113724,FAAT,-23.09447897,-46.54379457,-23.093502,-23.0962282,-46.5428687,-46.5459686
South_America,brazil,314212072,,-19.90731535,-43.94383593,-19.9069554,-19.9076065,-43.9436005,-43.9441648
South_America,brazil,314938410,Universidade Federal de Minas Gerais - campus Sa¨²de,-19.92406259,-43.93014629,-19.9230953,-19.9256974,-43.9275518,-43.9311062
South_America,brazil,315020187,Instituto Federal de Alagoas - Campus Marechal,-9.71315392,-35.89286638,-9.7122261,-9.7142296,-35.8921245,-35.8938664
South_America,brazil,316615200,Faculdade AGES,-10.94470432,-37.64141224,-10.9432116,-10.9458793,-37.6391441,-37.6429367
South_America,brazil,316692276,IFRS Campus Viam?o,-30.08414916,-51.05929121,-30.0812989,-30.0876861,-51.0563948,-51.0620336
South_America,brazil,317912291,Universidade do Contestado,-27.30737938,-50.56299185,-27.3065015,-27.3088449,-50.5620816,-50.5642989
South_America,brazil,320051559,UNG - Universidade de Guarulhos,-23.47064969,-46.53278572,-23.4696633,-23.4716755,-46.5313236,-46.5341832
South_America,brazil,320142568,Instituto Teol¨®gico,-23.53249323,-46.71434419,-23.5320942,-23.5332482,-46.7132036,-46.7153185
South_America,brazil,321304380,Universidade Tuiuti,-25.42462472,-49.31921516,-25.4231313,-25.4260721,-49.316719,-49.321511
South_America,brazil,321743452,Universidade Federal de S?o Paulo - Campus Avan?ado de Extens?o Universit¨¢ria Santo Amaro,-23.65509486,-46.71254865,-23.6545686,-23.6556348,-46.7115351,-46.7137341
South_America,brazil,322139970,Centro Universit¨¢rio de Jo?o Pessoa - UNIP?,-7.15733176,-34.85419907,-7.1559562,-7.1622166,-34.8503465,-34.858532
South_America,brazil,322580014,Faculdade de Tecnologia de Guaratinguet¨¢,-22.78553148,-45.1811123,-22.7846692,-22.7863937,-45.180563,-45.1816616
South_America,brazil,323314528,Universidade Est¨¢cio de S¨¢,-23.66239254,-46.69196852,-23.6620801,-23.6628807,-46.6913633,-46.692556
South_America,brazil,323459253,FATEC Zona Sul,-23.66222108,-46.72928253,-23.6612828,-23.6634925,-46.7284712,-46.7300087
South_America,brazil,323846216,UMC - Universidade de Mogi das Cruzes,-23.51685245,-46.18231956,-23.5150667,-23.5186812,-46.1809742,-46.1844742
South_America,brazil,325100998,Centro de Estudos do Mar,-25.57354332,-48.35073142,-25.5728212,-25.5745874,-48.3499271,-48.3512108
South_America,brazil,326287049,Universidade Estadual de Goias,-17.5615885,-52.55983898,-17.5610799,-17.5619207,-52.5592886,-52.5604159
South_America,brazil,326572858,Universidade Anchieta,-23.21466465,-46.89070476,-23.2111875,-23.2185433,-46.8886445,-46.8957433
South_America,brazil,326608241,Universidade Federal dos Vales do Jequitinhonha e Mucuri,-18.19513681,-43.57104849,-18.1853306,-18.206343,-43.5603038,-43.5818305
South_America,brazil,327624276,Universidade Federal da Para¨ªba - Campus Mangabeira,-7.162884327,-34.81729926,-7.1616228,-7.1641396,-34.8160278,-34.818748
South_America,brazil,329231431,Instituto Federal do Esp¨ªrito Santo - Campus Ibatiba,-20.23653233,-41.50801101,-20.2357476,-20.2370966,-41.5071098,-41.5086226
South_America,brazil,330736437,Cidade Universit¨¢ria,-21.57364369,-45.4782887,-21.5727108,-21.5757654,-45.4756746,-45.481187
South_America,brazil,330948653,Escola Superior da Cerveja e Malte,-26.8758505,-49.11655703,-26.8755482,-26.8764411,-49.1160267,-49.1169739
South_America,brazil,331095333,ESAC / TV ITARARE / FUNDA??O PEDRO AMERICO,-7.2376357,-35.8786102,-7.2372308,-7.2380066,-35.8780424,-35.8790597
South_America,brazil,331390522,Universidade Federal da Fronteira Sul,-27.72574368,-52.29391944,-27.7214292,-27.7315906,-52.2813183,-52.3015885
South_America,brazil,331574764,Faculdade Pit¨¢goras de Guarapari,-20.65726561,-40.50419213,-20.6555104,-20.6580973,-40.5029797,-40.5052838
South_America,brazil,331899180,Unopar,-27.1381663,-52.59493847,-27.1373457,-27.1393812,-52.5943993,-52.5954814
South_America,brazil,332888307,Universidade de Bras¨ªlia - Campus Universit¨¢rio Darcy Ribeiro - Gleba A,-15.76140236,-47.87280513,-15.7365188,-15.7796453,-47.8632374,-47.8850897
South_America,brazil,333135861,Centro Universit¨¢rio do Esp¨ªrito Santo Campus II,-20.16780213,-40.19644609,-20.1656162,-20.16882,-40.1943626,-40.1993305
South_America,brazil,333625310,Antigo Campus II da Universidade Cat¨®lica de Pelotas,-31.7761879,-52.3389181,-31.77581,-31.7765647,-52.3384628,-52.3393774
South_America,brazil,333850234,UFPel Campus Cap?o do Le?o,-31.80422488,-52.41278183,-31.7998973,-31.8089605,-52.4042084,-52.4224474
South_America,brazil,333931998,"Universidade Federal Rural do Rio de Janeiro, Instituto Multidisciplinar",-22.74282054,-43.45852139,-22.741962,-22.7430755,-43.4581686,-43.461349
South_America,brazil,334787524,UniSociesc Campus Park,-26.28846392,-48.81307204,-26.2866883,-26.2901772,-48.8112371,-48.8156676
South_America,brazil,335919978,Universidade do vale da Para¨ªba,-23.20864524,-45.95149681,-23.2040694,-23.2112379,-45.9434714,-45.9575085
South_America,brazil,337386607,P¨®lo de Apoio Presencial ¨C EaD/UAB,-7.079878,-41.43395788,-7.079378,-7.0804526,-41.43365,-41.4342004
South_America,brazil,338167019,Multivix,-20.82815765,-41.11230348,-20.8273427,-20.8288718,-41.1112708,-41.1132458
South_America,brazil,338321992,Faculdade Mauricio de Nassau,-2.90048415,-41.7238666,-2.8993926,-2.9015424,-41.7231277,-41.7245925
South_America,brazil,339600286,UCS Universidade de Caxias do Sul - Campus 8 - Centro de Artes e Arquitetura,-29.19217319,-51.25831752,-29.190886,-29.1932094,-51.2571888,-51.2594539
South_America,brazil,339656229,UNIFESP,-23.2153047,-45.8869145,-23.2143727,-23.2159193,-45.885923,-45.8883123
South_America,brazil,34317182,Faculdade de Educa??o,-23.56272543,-46.715542,-23.5617007,-23.5634514,-46.7143311,-46.7171342
South_America,brazil,34381227,Faculdade de Odontologia,-23.56780116,-46.73856078,-23.5657661,-23.5688396,-46.7370796,-46.740174
South_America,brazil,343976050,Universidade Federal do Paran¨¢,-24.2943334,-53.841717,-24.2902544,-24.2994639,-53.839253,-53.8443532
South_America,brazil,34428503,UNIRIO - Campus IV,-22.9531185,-43.17335741,-22.9525485,-22.9536526,-43.172883,-43.1737163
South_America,brazil,344556706,FEPI Funda??o de Ensino e Pesquisa de Itajub¨¢,-22.42930212,-45.44829951,-22.428516,-22.4302139,-45.4472943,-45.449616
South_America,brazil,345041653,Universidade Federal do Piau¨ª - Campus Senador Helv¨ªdio Nunes de Barros,-7.081071288,-41.43528612,-7.0794025,-7.083452,-41.4338877,-41.4371967
South_America,brazil,345403522,Uni?o do Ensino Superior do Paran¨¢,-24.29526778,-53.83761057,-24.2947875,-24.2963477,-53.836121,-53.8397307
South_America,brazil,345799938,Instituto Federal - Campus Birigui,-21.24892948,-50.3139901,-21.2472853,-21.250603,-50.3119537,-50.3159813
South_America,brazil,346035346,Universidade do Estado de Santa Catarina,-27.11923692,-52.6307152,-27.1184793,-27.1196284,-52.6301786,-52.6313221
South_America,brazil,346078705,Fameg Uniasselvi,-26.47551575,-49.02597038,-26.4745642,-26.4767154,-49.0250704,-49.027642
South_America,brazil,346382774,"Escola de Engenharia M¨ºcanica, El¨¦trica e de Computa??o - EMC",-16.67723065,-49.24144117,-16.6761662,-16.6788765,-49.2400324,-49.2423882
South_America,brazil,347981645,Universidad Amaz¨®nica de Pando,-11.03454686,-68.75914354,-11.0324521,-11.0364385,-68.7570455,-68.7606987
South_America,brazil,348409405,Universidade Anhembi Morumbi - Campus Morumbi,-23.62277748,-46.69341849,-23.6223158,-23.6236166,-46.6925451,-46.6940419
South_America,brazil,348683004,,-30.04268145,-51.20311505,-30.0423974,-30.0429708,-51.2023662,-51.2038628
South_America,brazil,348727092,Universidade do Estado da Bahia - Campus VI,-14.06906355,-42.49418124,-14.0681682,-14.0697435,-42.4933531,-42.4950549
South_America,brazil,349173796,Centro Universit¨¢rio Cat¨®lico Salesiano Auxilium,-21.67191579,-49.7586578,-21.6708456,-21.6726705,-49.757292,-49.759467
South_America,brazil,349684998,Uniasselvi Campus I,-26.86566406,-49.08716626,-26.8643686,-26.8669871,-49.0860543,-49.0884254
South_America,brazil,351036385,FURB - Campus 5,-26.8559922,-49.05440993,-26.8546121,-26.8573737,-49.0530426,-49.0555932
South_America,brazil,351913973,Faculdade de Ci¨ºncias e Letras de Assis,-22.64917915,-50.4377906,-22.6467288,-22.6522637,-50.4353155,-50.4417797
South_America,brazil,352177992,FATEC - Faculdade de Tecnologia de Sorocaba,-23.48055505,-47.42593707,-23.4774656,-23.4830439,-47.4237192,-47.4284962
South_America,brazil,352700441,Universidade do Estado da Bahia - Campus XII,-14.22939748,-42.7684377,-14.228422,-14.230889,-42.7669106,-42.7694931
South_America,brazil,353692716,Universidade Federal do Pampa,-29.79236148,-55.76695224,-29.7890391,-29.8006386,-55.7609155,-55.7699437
